%time,field.position.x,field.position.y,field.position.z,field.orientation.x,field.orientation.y,field.orientation.z,field.orientation.w
1634830453782217731,0.351592851592,0.958158255912,0.0,0.0,0.0,-0.704035716363,0.710164565496
1634830453800247871,0.351592851592,0.958158255912,0.0,0.0,0.0,-0.704035716363,0.710164565496
1634830453821632099,0.351592851592,0.958158255912,0.0,0.0,0.0,-0.704035716363,0.710164565496
1634830453847568505,0.351592851592,0.958158255912,0.0,0.0,0.0,-0.704035716363,0.710164565496
1634830453859844241,0.351592851592,0.958158255912,0.0,0.0,0.0,-0.704035716363,0.710164565496
1634830453879913831,0.351592851592,0.958158255912,0.0,0.0,0.0,-0.704035716363,0.710164565496
1634830453900742790,0.351592851592,0.958158255912,0.0,0.0,0.0,-0.704035716363,0.710164565496
1634830453919901655,0.351592851592,0.958158255912,0.0,0.0,0.0,-0.704035716363,0.710164565496
1634830453940835932,0.351592851592,0.958158255912,0.0,0.0,0.0,-0.704035716363,0.710164565496
1634830453960746911,0.351592851592,0.958158255912,0.0,0.0,0.0,-0.704035716363,0.710164565496
1634830453980946617,0.351592851592,0.958158255912,0.0,0.0,0.0,-0.704035716363,0.710164565496
1634830454000864891,0.351592851592,0.958158255912,0.0,0.0,0.0,-0.704035716363,0.710164565496
1634830454021214170,0.351592851592,0.958158255912,0.0,0.0,0.0,-0.704035716363,0.710164565496
1634830454040891718,0.351592851592,0.958158255912,0.0,0.0,0.0,-0.704035716363,0.710164565496
1634830454061962833,0.351592851592,0.958158255912,0.0,0.0,0.0,-0.704035716363,0.710164565496
1634830454080963300,0.351592851592,0.958158255912,0.0,0.0,0.0,-0.704035716363,0.710164565496
1634830454100940605,0.351592851592,0.958158255912,0.0,0.0,0.0,-0.704035716363,0.710164565496
1634830454121181859,0.351592851592,0.958158255912,0.0,0.0,0.0,-0.704035716363,0.710164565496
1634830454141164445,0.351592851592,0.958158255912,0.0,0.0,0.0,-0.704035716363,0.710164565496
1634830454159722503,0.351592851592,0.958158255912,0.0,0.0,0.0,-0.704035716363,0.710164565496
1634830454181033543,0.351592851592,0.958158255912,0.0,0.0,0.0,-0.704035716363,0.710164565496
1634830454201247687,0.351592851592,0.958158255912,0.0,0.0,0.0,-0.704035716363,0.710164565496
1634830454220841797,0.351592851592,0.958158255912,0.0,0.0,0.0,-0.704035716363,0.710164565496
1634830454241009913,0.351592851592,0.958158255912,0.0,0.0,0.0,-0.704035716363,0.710164565496
1634830454260653196,0.351592851592,0.958158255912,0.0,0.0,0.0,-0.704035716363,0.710164565496
1634830454280706675,0.351592851592,0.958158255912,0.0,0.0,0.0,-0.704035716363,0.710164565496
1634830454299670011,0.351592851592,0.958158255912,0.0,0.0,0.0,-0.704035716363,0.710164565496
1634830454320868498,0.351592851592,0.958158255912,0.0,0.0,0.0,-0.704035716363,0.710164565496
1634830454340618553,0.351592851592,0.958158255912,0.0,0.0,0.0,-0.704035716363,0.710164565496
1634830454360679257,0.351592851592,0.958158255912,0.0,0.0,0.0,-0.704035716363,0.710164565496
1634830454381166687,0.351592851592,0.958158255912,0.0,0.0,0.0,-0.704035716363,0.710164565496
1634830454401475469,0.351592851592,0.958158255912,0.0,0.0,0.0,-0.704035716363,0.710164565496
1634830454420784239,0.351592851592,0.958158255912,0.0,0.0,0.0,-0.704035716363,0.710164565496
1634830454440598576,0.351592851592,0.958158255912,0.0,0.0,0.0,-0.704035716363,0.710164565496
1634830454459950397,0.351592851592,0.958158255912,0.0,0.0,0.0,-0.704035716363,0.710164565496
1634830454480627307,0.351592851592,0.958158255912,0.0,0.0,0.0,-0.704035716363,0.710164565496
1634830454500234262,0.351592851592,0.958158255912,0.0,0.0,0.0,-0.704035716363,0.710164565496
1634830454521009167,0.351592851592,0.958158255912,0.0,0.0,0.0,-0.704035716363,0.710164565496
1634830454540613325,0.351592851592,0.958158255912,0.0,0.0,0.0,-0.704035716363,0.710164565496
1634830454560655933,0.351592851592,0.958158255912,0.0,0.0,0.0,-0.704035716363,0.710164565496
1634830454580052520,0.351592851592,0.958158255912,0.0,0.0,0.0,-0.704035716363,0.710164565496
1634830454601449722,0.351592851592,0.958158255912,0.0,0.0,0.0,-0.704035716363,0.710164565496
1634830454620643885,0.351592851592,0.958158255912,0.0,0.0,0.0,-0.704035716363,0.710164565496
1634830454642248511,0.351592851592,0.958158255912,0.0,0.0,0.0,-0.704035716363,0.710164565496
1634830454659707339,0.351592851592,0.958158255912,0.0,0.0,0.0,-0.704035716363,0.710164565496
1634830454680741194,0.351592851592,0.958158255912,0.0,0.0,0.0,-0.704035716363,0.710164565496
1634830454699717866,0.351592851592,0.958158255912,0.0,0.0,0.0,-0.704035716363,0.710164565496
1634830454720781877,0.351592851592,0.958158255912,0.0,0.0,0.0,-0.704035716363,0.710164565496
1634830454740232886,0.351592851592,0.958158255912,0.0,0.0,0.0,-0.704035716363,0.710164565496
1634830454760834183,0.351592851592,0.958158255912,0.0,0.0,0.0,-0.704035716363,0.710164565496
1634830454780834632,0.351592851592,0.958158255912,0.0,0.0,0.0,-0.704035716363,0.710164565496
1634830454800799554,0.351592851592,0.958158255912,0.0,0.0,0.0,-0.704035716363,0.710164565496
1634830454820603410,0.351592851592,0.958158255912,0.0,0.0,0.0,-0.704035716363,0.710164565496
1634830454839408819,0.351592851592,0.958158255912,0.0,0.0,0.0,-0.704035716363,0.710164565496
1634830454859404017,0.351592851592,0.958158255912,0.0,0.0,0.0,-0.704035716363,0.710164565496
1634830454879408443,0.351592851592,0.958158255912,0.0,0.0,0.0,-0.704035716363,0.710164565496
1634830454899559517,0.351592851592,0.958158255912,0.0,0.0,0.0,-0.704035716363,0.710164565496
1634830454919487709,0.351592851592,0.958158255912,0.0,0.0,0.0,-0.704035716363,0.710164565496
1634830454942365034,0.351592851592,0.958158255912,0.0,0.0,0.0,-0.704035716363,0.710164565496
1634830454959837057,0.351592851592,0.958158255912,0.0,0.0,0.0,-0.704035716363,0.710164565496
1634830454980693797,0.351592851592,0.958158255912,0.0,0.0,0.0,-0.704035716363,0.710164565496
1634830454999330674,0.351592851592,0.958158255912,0.0,0.0,0.0,-0.704035716363,0.710164565496
1634830455020651082,0.351592851592,0.958158255912,0.0,0.0,0.0,-0.704035716363,0.710164565496
1634830455039216855,0.351592851592,0.958158255912,0.0,0.0,0.0,-0.704035716363,0.710164565496
1634830455060460728,0.351592851592,0.958158255912,0.0,0.0,0.0,-0.704035716363,0.710164565496
1634830455080466547,0.351592851592,0.958158255912,0.0,0.0,0.0,-0.704035716363,0.710164565496
1634830455099218063,0.351592851592,0.958158255912,0.0,0.0,0.0,-0.704035716363,0.710164565496
1634830455120723891,0.351592851592,0.958158255912,0.0,0.0,0.0,-0.704035716363,0.710164565496
1634830455141083250,0.351592851592,0.958158255912,0.0,0.0,0.0,-0.704035716363,0.710164565496
1634830455159307586,0.351592851592,0.958158255912,0.0,0.0,0.0,-0.704035716363,0.710164565496
1634830455180577037,0.351592851592,0.958158255912,0.0,0.0,0.0,-0.704035716363,0.710164565496
1634830455201042467,0.351592851592,0.958158255912,0.0,0.0,0.0,-0.704035716363,0.710164565496
1634830455220722148,0.351592851592,0.958158255912,0.0,0.0,0.0,-0.704035716363,0.710164565496
1634830455240352086,0.351592851592,0.958158255912,0.0,0.0,0.0,-0.704035716363,0.710164565496
1634830455259147404,0.351592851592,0.958158255912,0.0,0.0,0.0,-0.704035716363,0.710164565496
1634830455279456257,0.351592851592,0.958158255912,0.0,0.0,0.0,-0.704035716363,0.710164565496
1634830455299208295,0.351592851592,0.958158255912,0.0,0.0,0.0,-0.704035716363,0.710164565496
1634830455319490788,0.351592851592,0.958158255912,0.0,0.0,0.0,-0.704035716363,0.710164565496
1634830455340302583,0.351592851592,0.958158255912,0.0,0.0,0.0,-0.704035716363,0.710164565496
1634830455360184618,0.351592851592,0.958158255912,0.0,0.0,0.0,-0.704035716363,0.710164565496
1634830455380248608,0.351592851592,0.958158255912,0.0,0.0,0.0,-0.704035716363,0.710164565496
1634830455400213208,0.351592851592,0.958158255912,0.0,0.0,0.0,-0.704035716363,0.710164565496
1634830455420533984,0.351592851592,0.958158255912,0.0,0.0,0.0,-0.704035716363,0.710164565496
1634830455440416109,0.351592851592,0.958158255912,0.0,0.0,0.0,-0.704035716363,0.710164565496
1634830455460057357,0.351592851592,0.958158255912,0.0,0.0,0.0,-0.704035716363,0.710164565496
1634830455479031536,0.351592851592,0.958158255912,0.0,0.0,0.0,-0.704035716363,0.710164565496
1634830455499193801,0.351592851592,0.958158255912,0.0,0.0,0.0,-0.704035716363,0.710164565496
1634830455522898441,0.351592851592,0.958158255912,0.0,0.0,0.0,-0.704035716363,0.710164565496
1634830455540616599,0.351592851592,0.958158255912,0.0,0.0,0.0,-0.704035716363,0.710164565496
1634830455562076791,0.351592851592,0.958158255912,0.0,0.0,0.0,-0.704035716363,0.710164565496
1634830455580126678,0.351592851592,0.958158255912,0.0,0.0,0.0,-0.704035716363,0.710164565496
1634830455599197618,0.351592851592,0.958158255912,0.0,0.0,0.0,-0.704035716363,0.710164565496
1634830455633941106,0.351592851592,0.958158255912,0.0,0.0,0.0,-0.704035716363,0.710164565496
1634830455643153464,0.351592851592,0.958158255912,0.0,0.0,0.0,-0.704035716363,0.710164565496
1634830455661024351,0.351592851592,0.958158255912,0.0,0.0,0.0,-0.704035716363,0.710164565496
1634830455681488417,0.351592851592,0.958158255912,0.0,0.0,0.0,-0.704035716363,0.710164565496
1634830455701101032,0.351592851592,0.958158255912,0.0,0.0,0.0,-0.704035716363,0.710164565496
1634830455719292516,0.351592851592,0.958158255912,0.0,0.0,0.0,-0.704035716363,0.710164565496
1634830455742614081,0.351592851592,0.958158255912,0.0,0.0,0.0,-0.704035716363,0.710164565496
1634830455759086042,0.351592851592,0.958158255912,0.0,0.0,0.0,-0.704035716363,0.710164565496
1634830455780918348,0.351592851592,0.958158255912,0.0,0.0,0.0,-0.704035716363,0.710164565496
1634830455799967819,0.351592851592,0.958158255912,0.0,0.0,0.0,-0.704035716363,0.710164565496
1634830455820079999,0.351592851592,0.958158255912,0.0,0.0,0.0,-0.704035716363,0.710164565496
1634830455840291166,0.351592851592,0.958158255912,0.0,0.0,0.0,-0.704035716363,0.710164565496
1634830455860128847,0.351592851592,0.958158255912,0.0,0.0,0.0,-0.704035716363,0.710164565496
1634830455879892547,0.351592851592,0.958158255912,0.0,0.0,0.0,-0.704035716363,0.710164565496
1634830455899081870,0.351592851592,0.958158255912,0.0,0.0,0.0,-0.704035716363,0.710164565496
1634830455920216948,0.351592851592,0.958158255912,0.0,0.0,0.0,-0.704035716363,0.710164565496
1634830455939032414,0.351592851592,0.958158255912,0.0,0.0,0.0,-0.704035716363,0.710164565496
1634830455961726741,0.351592851592,0.958158255912,0.0,0.0,0.0,-0.704035716363,0.710164565496
1634830455982876116,0.351592851592,0.958158255912,0.0,0.0,0.0,-0.704035716363,0.710164565496
1634830455999097912,0.351592851592,0.958158255912,0.0,0.0,0.0,-0.704035716363,0.710164565496
1634830456018759700,0.351592851592,0.958158255912,0.0,0.0,0.0,-0.704035716363,0.710164565496
1634830456039050569,0.351592851592,0.958158255912,0.0,0.0,0.0,-0.704035716363,0.710164565496
1634830456058916934,0.351592851592,0.958158255912,0.0,0.0,0.0,-0.704035716363,0.710164565496
1634830456080124608,0.351592851592,0.958158255912,0.0,0.0,0.0,-0.704035716363,0.710164565496
1634830456100049534,0.351592851592,0.958158255912,0.0,0.0,0.0,-0.704035716363,0.710164565496
1634830456122678488,0.351592851592,0.958158255912,0.0,0.0,0.0,-0.704035716363,0.710164565496
1634830456140203391,0.351592851592,0.958158255912,0.0,0.0,0.0,-0.704035716363,0.710164565496
1634830456158742676,0.351592851592,0.958158255912,0.0,0.0,0.0,-0.704035716363,0.710164565496
1634830456179811487,0.351592851592,0.958158255912,0.0,0.0,0.0,-0.704035716363,0.710164565496
1634830456202022279,0.351592851592,0.958158255912,0.0,0.0,0.0,-0.704035716363,0.710164565496
1634830456218825215,0.351592851592,0.958158255912,0.0,0.0,0.0,-0.704035716363,0.710164565496
1634830456240142637,0.351592851592,0.958158255912,0.0,0.0,0.0,-0.704035716363,0.710164565496
1634830456259142743,0.351592851592,0.958158255912,0.0,0.0,0.0,-0.704035716363,0.710164565496
1634830456280350407,0.351592851592,0.958158255912,0.0,0.0,0.0,-0.704035716363,0.710164565496
1634830456299153660,0.351592851592,0.958158255912,0.0,0.0,0.0,-0.704035716363,0.710164565496
1634830456319915079,0.351592851592,0.958158255912,0.0,0.0,0.0,-0.704035716363,0.710164565496
1634830456342532723,0.351592851592,0.958158255912,0.0,0.0,0.0,-0.704035716363,0.710164565496
1634830456359722110,0.351592851592,0.958158255912,0.0,0.0,0.0,-0.704035716363,0.710164565496
1634830456379018476,0.351592851592,0.958158255912,0.0,0.0,0.0,-0.704035716363,0.710164565496
1634830456400901278,0.351592851592,0.958158255912,0.0,0.0,0.0,-0.704035716363,0.710164565496
1634830456420009759,0.351592851592,0.958158255912,0.0,0.0,0.0,-0.704035716363,0.710164565496
1634830456439972406,0.351592851592,0.958158255912,0.0,0.0,0.0,-0.704035716363,0.710164565496
1634830456459056360,0.351592851592,0.958158255912,0.0,0.0,0.0,-0.704035716363,0.710164565496
1634830456480605181,0.351592851592,0.958158255912,0.0,0.0,0.0,-0.704035716363,0.710164565496
1634830456499761121,0.351592851592,0.958158255912,0.0,0.0,0.0,-0.704035716363,0.710164565496
1634830456518663952,0.351592851592,0.958158255912,0.0,0.0,0.0,-0.704035716363,0.710164565496
1634830456539890732,0.351592851592,0.958158255912,0.0,0.0,0.0,-0.704035716363,0.710164565496
1634830456579879367,0.351592851592,0.958158255912,0.0,0.0,0.0,-0.704035716363,0.710164565496
1634830456579885138,0.351592851592,0.958158255912,0.0,0.0,0.0,-0.704035716363,0.710164565496
1634830456598753243,0.351592851592,0.958158255912,0.0,0.0,0.0,-0.704035716363,0.710164565496
1634830456619905864,0.351592851592,0.958158255912,0.0,0.0,0.0,-0.704035716363,0.710164565496
1634830456644317222,0.351592851592,0.958158255912,0.0,0.0,0.0,-0.704035716363,0.710164565496
1634830456661232180,0.351592851592,0.958158255912,0.0,0.0,0.0,-0.704035716363,0.710164565496
1634830456680252474,0.351592851592,0.958158255912,0.0,0.0,0.0,-0.704035716363,0.710164565496
1634830456699553419,0.351592851592,0.958158255912,0.0,0.0,0.0,-0.704035716363,0.710164565496
1634830456722296028,0.351592851592,0.958158255912,0.0,0.0,0.0,-0.704035716363,0.710164565496
1634830456745601794,0.351592851592,0.958158255912,0.0,0.0,0.0,-0.704035716363,0.710164565496
1634830456760955748,0.351592851592,0.958158255912,0.0,0.0,0.0,-0.704035716363,0.710164565496
1634830456778493986,0.351592851592,0.958158255912,0.0,0.0,0.0,-0.704035716363,0.710164565496
1634830456798583604,0.351592851592,0.958158255912,0.0,0.0,0.0,-0.704035716363,0.710164565496
1634830456823260255,0.351592851592,0.958158255912,0.0,0.0,0.0,-0.704035716363,0.710164565496
1634830456839792579,0.351592851592,0.958158255912,0.0,0.0,0.0,-0.704035716363,0.710164565496
1634830456858809707,0.351592851592,0.958158255912,0.0,0.0,0.0,-0.704035716363,0.710164565496
1634830456879416323,0.351592851592,0.958158255912,0.0,0.0,0.0,-0.704035716363,0.710164565496
1634830456899271677,0.351592851592,0.958158255912,0.0,0.0,0.0,-0.704035716363,0.710164565496
1634830456918405065,0.351592851592,0.958158255912,0.0,0.0,0.0,-0.704035716363,0.710164565496
1634830456939741663,0.351592851592,0.958158255912,0.0,0.0,0.0,-0.704035716363,0.710164565496
1634830456959521424,0.351592851592,0.958158255912,0.0,0.0,0.0,-0.704035716363,0.710164565496
1634830456978366466,0.351592851592,0.958158255912,0.0,0.0,0.0,-0.704035716363,0.710164565496
1634830456998466063,0.351592851592,0.958158255912,0.0,0.0,0.0,-0.704035716363,0.710164565496
1634830457019782773,0.351592851592,0.958158255912,0.0,0.0,0.0,-0.704035716363,0.710164565496
1634830457039504916,0.351592851592,0.958158255912,0.0,0.0,0.0,-0.704035716363,0.710164565496
1634830457059005097,0.351592851592,0.958158255912,0.0,0.0,0.0,-0.704035716363,0.710164565496
1634830457079293903,0.351592851592,0.958158255912,0.0,0.0,0.0,-0.704035716363,0.710164565496
1634830457098446166,0.351592851592,0.958158255912,0.0,0.0,0.0,-0.704035716363,0.710164565496
1634830457120575435,0.351592851592,0.958158255912,0.0,0.0,0.0,-0.704035716363,0.710164565496
1634830457139131589,0.351592851592,0.958158255912,0.0,0.0,0.0,-0.704035716363,0.710164565496
1634830457162751380,0.351592851592,0.958158255912,0.0,0.0,0.0,-0.704035716363,0.710164565496
1634830457179529499,0.351592851592,0.958158255912,0.0,0.0,0.0,-0.704035716363,0.710164565496
1634830457198233293,0.351592851592,0.958158255912,0.0,0.0,0.0,-0.704035716363,0.710164565496
1634830457219806630,0.351592851592,0.958158255912,0.0,0.0,0.0,-0.704035716363,0.710164565496
1634830457240482467,0.351592851592,0.958158255912,0.0,0.0,0.0,-0.704035716363,0.710164565496
1634830457259414784,0.351592851592,0.958158255912,0.0,0.0,0.0,-0.704035716363,0.710164565496
1634830457281802251,0.351592851592,0.958158255912,0.0,0.0,0.0,-0.704035716363,0.710164565496
1634830457298942497,0.351592851592,0.958158255912,0.0,0.0,0.0,-0.704035716363,0.710164565496
1634830457320306777,0.351592851592,0.958158255912,0.0,0.0,0.0,-0.704035716363,0.710164565496
1634830457339282847,0.351592851592,0.958158255912,0.0,0.0,0.0,-0.704035716363,0.710164565496
1634830457358292280,0.351592851592,0.958158255912,0.0,0.0,0.0,-0.704035716363,0.710164565496
1634830457378771426,0.351592851592,0.958158255912,0.0,0.0,0.0,-0.704035716363,0.710164565496
1634830457398242362,0.351592851592,0.958158255912,0.0,0.0,0.0,-0.704035716363,0.710164565496
1634830457422870732,0.351592851592,0.958158255912,0.0,0.0,0.0,-0.704035716363,0.710164565496
1634830457440349357,0.351592851592,0.958158255912,0.0,0.0,0.0,-0.704035716363,0.710164565496
1634830457457982204,0.351592851592,0.958158255912,0.0,0.0,0.0,-0.704035716363,0.710164565496
1634830457479217751,0.351592851592,0.958158255912,0.0,0.0,0.0,-0.704035716363,0.710164565496
1634830457499139290,0.351592851592,0.958158255912,0.0,0.0,0.0,-0.704035716363,0.710164565496
1634830457522556036,0.351592851592,0.958158255912,0.0,0.0,0.0,-0.704035716363,0.710164565496
1634830457538373427,0.351592851592,0.958158255912,0.0,0.0,0.0,-0.704035716363,0.710164565496
1634830457559352118,0.351592851592,0.958158255912,0.0,0.0,0.0,-0.704035716363,0.710164565496
1634830457579840961,0.351592851592,0.958158255912,0.0,0.0,0.0,-0.704035716363,0.710164565496
1634830457597982260,0.351592851592,0.958158255912,0.0,0.0,0.0,-0.704035716363,0.710164565496
1634830457619473171,0.351592851592,0.958158255912,0.0,0.0,0.0,-0.704035716363,0.710164565496
1634830457639100283,0.351592851592,0.958158255912,0.0,0.0,0.0,-0.704035716363,0.710164565496
1634830457658019065,0.351592851592,0.958158255912,0.0,0.0,0.0,-0.704035716363,0.710164565496
1634830457678220574,0.351592851592,0.958158255912,0.0,0.0,0.0,-0.704035716363,0.710164565496
1634830457699074479,0.351592851592,0.958158255912,0.0,0.0,0.0,-0.704035716363,0.710164565496
1634830457719443024,0.351592851592,0.958158255912,0.0,0.0,0.0,-0.704035716363,0.710164565496
1634830457741941442,0.351592851592,0.958158255912,0.0,0.0,0.0,-0.704035716363,0.710164565496
1634830457758607930,0.351592851592,0.958158255912,0.0,0.0,0.0,-0.704035716363,0.710164565496
1634830457779043122,0.351592851592,0.958158255912,0.0,0.0,0.0,-0.704035716363,0.710164565496
1634830457798404461,0.351592851592,0.958158255912,0.0,0.0,0.0,-0.704035716363,0.710164565496
1634830457818746256,0.351592851592,0.958158255912,0.0,0.0,0.0,-0.704035716363,0.710164565496
1634830457839070318,0.351592851592,0.958158255912,0.0,0.0,0.0,-0.704035716363,0.710164565496
1634830457858669287,0.351592851592,0.958158255912,0.0,0.0,0.0,-0.704035716363,0.710164565496
1634830457879051298,0.351592851592,0.958158255912,0.0,0.0,0.0,-0.704035716363,0.710164565496
1634830457898188353,0.351592851592,0.958158255912,0.0,0.0,0.0,-0.704035716363,0.710164565496
1634830457919465358,0.351592851592,0.958158255912,0.0,0.0,0.0,-0.704035716363,0.710164565496
1634830457937898841,0.351592851592,0.958158255912,0.0,0.0,0.0,-0.704035716363,0.710164565496
1634830457958937115,0.351592851592,0.958158255912,0.0,0.0,0.0,-0.704035716363,0.710164565496
1634830457980968418,0.351592851592,0.958158255912,0.0,0.0,0.0,-0.704035716363,0.710164565496
1634830457998622385,0.351592851592,0.958158255912,0.0,0.0,0.0,-0.704035716363,0.710164565496
1634830458020139975,0.351592851592,0.958158255912,0.0,0.0,0.0,-0.704035716363,0.710164565496
1634830458039048027,0.351592851592,0.958158255912,0.0,0.0,0.0,-0.704035716363,0.710164565496
1634830458057776659,0.351592851592,0.958158255912,0.0,0.0,0.0,-0.704035716363,0.710164565496
1634830458079102867,0.351592851592,0.958158255912,0.0,0.0,0.0,-0.704035716363,0.710164565496
1634830458097927500,0.351592851592,0.958158255912,0.0,0.0,0.0,-0.704035716363,0.710164565496
1634830458119587370,0.351592851592,0.958158255912,0.0,0.0,0.0,-0.704035716363,0.710164565496
1634830458137976390,0.351592851592,0.958158255912,0.0,0.0,0.0,-0.704035716363,0.710164565496
1634830458162295102,0.351592851592,0.958158255912,0.0,0.0,0.0,-0.704035716363,0.710164565496
1634830458179836987,0.351592967172,0.958144859743,0.0,0.0,0.0,-0.704059312577,0.710141172144
1634830458198868221,0.351593615432,0.958068276069,0.0,0.0,0.0,-0.704147036124,0.710054189142
1634830458220309087,0.351594450178,0.957966663748,0.0,0.0,0.0,-0.704246158848,0.709955877324
1634830458237785398,0.351595349315,0.95785524166,0.0,0.0,0.0,-0.704239588755,0.709962394518
1634830458257721676,0.351596718521,0.957689224123,0.0,0.0,0.0,-0.704117388914,0.71008358848
1634830458277692448,0.351599254265,0.957405679411,0.0,0.0,0.0,-0.703787999488,0.710410058893
1634830458299886369,0.351601732547,0.957147947755,0.0,0.0,0.0,-0.703598197028,0.710598041891
1634830458318866537,0.351605244088,0.956805201483,0.0,0.0,0.0,-0.703349047408,0.710844650757
1634830458342043739,0.351608397129,0.956509684733,0.0,0.0,0.0,-0.703340700081,0.710852909968
1634830458358680531,0.35161151913,0.95621616092,0.0,0.0,0.0,-0.703336899693,0.710856670174
1634830458379979578,0.351614933569,0.955897585992,0.0,0.0,0.0,-0.703288248543,0.710904803374
1634830458397559736,0.351618285691,0.955583119048,0.0,0.0,0.0,-0.703386592546,0.710807499557
1634830458418664365,0.351621967753,0.955223615292,0.0,0.0,0.0,-0.703550361942,0.710645402582
1634830458439144111,0.35162544766,0.95487324501,0.0,0.0,0.0,-0.703615519131,0.710580890003
1634830458458780671,0.351629761984,0.95442667383,0.0,0.0,0.0,-0.703789696514,0.710408377682
1634830458477604342,0.351633576864,0.954007945062,0.0,0.0,0.0,-0.703977292661,0.710222480225
1634830458497902346,0.351638249675,0.953442900388,0.0,0.0,0.0,-0.704317124536,0.70988547533
1634830458519737347,0.351643808763,0.952717950801,0.0,0.0,0.0,-0.704474200241,0.709729597237
1634830458539360842,0.351648108371,0.952100768911,0.0,0.0,0.0,-0.704789923787,0.709416072082
1634830458558908644,0.351652206026,0.951432537183,0.0,0.0,0.0,-0.705051914641,0.709155693526
1634830458584248019,0.351655994426,0.950703160623,0.0,0.0,0.0,-0.705447305616,0.70876237132
1634830458601101952,0.351659925053,0.949804414291,0.0,0.0,0.0,-0.705698965969,0.708511799076
1634830458617864131,0.35166327917,0.948849154209,0.0,0.0,0.0,-0.705996023584,0.708215796691
1634830458638604110,0.351665896407,0.947845558398,0.0,0.0,0.0,-0.706403703264,0.707809160731
1634830458659242787,0.351667304596,0.946858839055,0.0,0.0,0.0,-0.706830477652,0.707382976797
1634830458678567518,0.351667580371,0.945792134823,0.0,0.0,0.0,-0.707137381826,0.707076179223
1634830458697437207,0.351666714328,0.944637402326,0.0,0.0,0.0,-0.7075427714,0.706670521982
1634830458724004365,0.351664549308,0.943461133843,0.0,0.0,0.0,-0.707957032219,0.706255506549
1634830458740079233,0.351661336843,0.942368528091,0.0,0.0,0.0,-0.708379853714,0.705831412486
1634830458757415849,0.351657091649,0.941320373187,0.0,0.0,0.0,-0.708748440407,0.705461301717
1634830458778608586,0.351651953641,0.940325118289,0.0,0.0,0.0,-0.709102817129,0.705105094819
1634830458799848831,0.351645478813,0.939314651208,0.0,0.0,0.0,-0.709563732262,0.704641263239
1634830458818506809,0.35163888794,0.93844033331,0.0,0.0,0.0,-0.710018354137,0.704183169913
1634830458840796642,0.351631703554,0.937599566607,0.0,0.0,0.0,-0.710237607682,0.703962030677
1634830458858441892,0.351625030927,0.936884521989,0.0,0.0,0.0,-0.710525120121,0.703671836638
1634830458878596273,0.3516175061,0.936123494502,0.0,0.0,0.0,-0.710673228643,0.703522254154
1634830458902161489,0.351610950239,0.935474210285,0.0,0.0,0.0,-0.710693832319,0.703501440442
1634830458918626267,0.351604942434,0.934875033432,0.0,0.0,0.0,-0.710602409263,0.703593786179
1634830458938479086,0.351598557784,0.934214968861,0.0,0.0,0.0,-0.71042274872,0.703775190029
1634830458958527225,0.351593215145,0.933628696768,0.0,0.0,0.0,-0.710179407034,0.704020745308
1634830458982536732,0.351588094917,0.933004154684,0.0,0.0,0.0,-0.709860847262,0.704341946446
1634830458998353231,0.351583051213,0.932319453755,0.0,0.0,0.0,-0.709548718166,0.704656381897
1634830459018925012,0.351578674816,0.931644527027,0.0,0.0,0.0,-0.709219703948,0.704987525798
1634830459039312563,0.351574521838,0.930930105055,0.0,0.0,0.0,-0.709072200048,0.705135884152
1634830459058575617,0.351570762715,0.930224923075,0.0,0.0,0.0,-0.708997084044,0.705211411435
1634830459079427788,0.351566561383,0.929439218705,0.0,0.0,0.0,-0.709011665296,0.705196751604
1634830459097718821,0.351561611016,0.928620887124,0.0,0.0,0.0,-0.709371279451,0.704835007566
1634830459118642447,0.35155593918,0.927810128094,0.0,0.0,0.0,-0.709805718218,0.704397503109
1634830459137297429,0.351548351854,0.926907922413,0.0,0.0,0.0,-0.710327460582,0.703871365197
1634830459158355911,0.351539607839,0.926032960616,0.0,0.0,0.0,-0.710955957151,0.703236537014
1634830459178029381,0.351528664263,0.925098971522,0.0,0.0,0.0,-0.711439521503,0.702747328165
1634830459197315308,0.351515932087,0.924122662911,0.0,0.0,0.0,-0.711961315547,0.702218687564
1634830459218483777,0.351501864413,0.923122489905,0.0,0.0,0.0,-0.712181655565,0.701995220409
1634830459237260891,0.35148696996,0.922094876533,0.0,0.0,0.0,-0.71221095045,0.701965499194
1634830459258538046,0.351472237758,0.921077392328,0.0,0.0,0.0,-0.712133015904,0.702044562446
1634830459278776196,0.351457825043,0.920058734295,0.0,0.0,0.0,-0.711945789468,0.702234428706
1634830459297660592,0.351442773116,0.918939650451,0.0,0.0,0.0,-0.711668515559,0.702515426139
1634830459319240441,0.351428512989,0.917802091437,0.0,0.0,0.0,-0.711390517953,0.702796934375
1634830459338405849,0.351414609556,0.916608887602,0.0,0.0,0.0,-0.711114721898,0.703075993261
1634830459357169927,0.351403335853,0.91559004254,0.0,0.0,0.0,-0.710977930992,0.703214321273
1634830459377123608,0.351393779974,0.914703183288,0.0,0.0,0.0,-0.710892222939,0.703300964996
1634830459397325779,0.351382942936,0.913714302481,0.0,0.0,0.0,-0.711068967556,0.703122267731
1634830459418143534,0.351371154102,0.912709617253,0.0,0.0,0.0,-0.711401401255,0.702785917825
1634830459437037649,0.351360845587,0.911876968674,0.0,0.0,0.0,-0.711474324687,0.70271209276
1634830459458698252,0.351350707446,0.911077477334,0.0,0.0,0.0,-0.711642666086,0.702541611441
1634830459477137224,0.35133957383,0.91022025992,0.0,0.0,0.0,-0.711713732239,0.70246961738
1634830459497403737,0.351330398825,0.909500350638,0.0,0.0,0.0,-0.711524332806,0.702661457478
1634830459517195450,0.351320734988,0.908716325165,0.0,0.0,0.0,-0.711324484223,0.702863769265
1634830459537728057,0.351310689698,0.907870364399,0.0,0.0,0.0,-0.711224290939,0.702965154171
1634830459558205548,0.351300840235,0.906992266695,0.0,0.0,0.0,-0.711002955136,0.703189019957
1634830459579041109,0.351292086233,0.90615707651,0.0,0.0,0.0,-0.71060209382,0.703594104764
1634830459598055320,0.351283408077,0.905252108576,0.0,0.0,0.0,-0.710415239387,0.703782770212
1634830459619310524,0.351275913749,0.904404977156,0.0,0.0,0.0,-0.710137400302,0.70406311698
1634830459637497300,0.351269267769,0.903623200746,0.0,0.0,0.0,-0.710042533159,0.704158789695
1634830459658390469,0.351262047894,0.90277804021,0.0,0.0,0.0,-0.710188672047,0.704011399124
1634830459679286353,0.351255191101,0.902020171294,0.0,0.0,0.0,-0.710478521842,0.703718885636
1634830459696952263,0.351247438736,0.901231748252,0.0,0.0,0.0,-0.710685067175,0.703510295088
1634830459721580171,0.351238933561,0.900442745627,0.0,0.0,0.0,-0.711115971985,0.703074728879
1634830459738208357,0.35122924496,0.899625992914,0.0,0.0,0.0,-0.711431932345,0.70275501111
1634830459758306751,0.351220501145,0.898935228064,0.0,0.0,0.0,-0.711631951354,0.702552464811
1634830459777810981,0.35121120099,0.898216681466,0.0,0.0,0.0,-0.711769202729,0.702413412491
1634830459798381829,0.351201117227,0.897458545069,0.0,0.0,0.0,-0.711897824164,0.702283054011
1634830459818188442,0.351192757535,0.896841254283,0.0,0.0,0.0,-0.711839003987,0.702342674485
1634830459837942604,0.351183815462,0.896167035007,0.0,0.0,0.0,-0.711651561594,0.702532600582
1634830459858368158,0.35117689989,0.895623935203,0.0,0.0,0.0,-0.711465199266,0.702721331848
1634830459877942550,0.35116841304,0.894930909263,0.0,0.0,0.0,-0.711425862209,0.70276115614
1634830459896931364,0.351160277682,0.894239530495,0.0,0.0,0.0,-0.711110240652,0.703080525716
1634830459916803010,0.351151616767,0.893463874958,0.0,0.0,0.0,-0.710921894975,0.703270971422
1634830459938371476,0.351143063167,0.892642406984,0.0,0.0,0.0,-0.710630523381,0.703565390877
1634830459957321186,0.351134566126,0.891758915087,0.0,0.0,0.0,-0.710333502711,0.703865267595
1634830459977195637,0.35112595026,0.890793971029,0.0,0.0,0.0,-0.710193205897,0.704006825463
1634830459996958035,0.351117516785,0.889820889515,0.0,0.0,0.0,-0.710167906954,0.7040323458
1634830460017233725,0.351109163572,0.888840471342,0.0,0.0,0.0,-0.710145576436,0.704054870211
1634830460037874848,0.351101147448,0.887896978184,0.0,0.0,0.0,-0.710179320562,0.704020832537
1634830460057050024,0.351092092568,0.88688548156,0.0,0.0,0.0,-0.710389473253,0.703808778215
1634830460078205059,0.351082684805,0.885893775601,0.0,0.0,0.0,-0.710513788829,0.703683278104
1634830460097848622,0.351072573671,0.88485750774,0.0,0.0,0.0,-0.710557052374,0.703639591923
1634830460117995537,0.351063187515,0.883890673374,0.0,0.0,0.0,-0.710436695261,0.703761111476
1634830460140766651,0.351054382077,0.882946246661,0.0,0.0,0.0,-0.710238590411,0.703961039186
1634830460157815743,0.351047394251,0.882117881002,0.0,0.0,0.0,-0.709924623346,0.704277664822
1634830460177951519,0.351041887732,0.881351453673,0.0,0.0,0.0,-0.709298949031,0.704907796029
1634830460197661758,0.351037636201,0.880571263036,0.0,0.0,0.0,-0.708821621912,0.705387771591
1634830460228588770,0.351033694416,0.879695098287,0.0,0.0,0.0,-0.708543175672,0.705667462909
1634830460237259783,0.351030225542,0.878789260771,0.0,0.0,0.0,-0.708422273544,0.705788836939
1634830460258342782,0.351027147901,0.877948029217,0.0,0.0,0.0,-0.708467401215,0.705743537991
1634830460283363403,0.351024386204,0.877216001163,0.0,0.0,0.0,-0.708446620964,0.70576439783
1634830460296826417,0.351021301965,0.876477190238,0.0,0.0,0.0,-0.708700501404,0.705509460822
1634830460319637817,0.351017291717,0.87567780716,0.0,0.0,0.0,-0.709056220258,0.705151952783
1634830460339958642,0.351013523797,0.87502706665,0.0,0.0,0.0,-0.709262257813,0.704944713891
1634830460357274882,0.351010316437,0.874489617268,0.0,0.0,0.0,-0.70923395111,0.704973192819
1634830460376766026,0.35100665978,0.873906025452,0.0,0.0,0.0,-0.709364881726,0.704841446407
1634830460396659322,0.351003176453,0.87335736534,0.0,0.0,0.0,-0.709359498975,0.704846863661
1634830460418453827,0.350999660947,0.872818230245,0.0,0.0,0.0,-0.709389764109,0.704816403454
1634830460438277110,0.350996006467,0.872253847555,0.0,0.0,0.0,-0.709410323998,0.704795709554
1634830460457752295,0.350991968667,0.871636771902,0.0,0.0,0.0,-0.70934438656,0.704862072505
1634830460477790235,0.350987956858,0.870991913319,0.0,0.0,0.0,-0.709297676294,0.704909076693
1634830460496583098,0.350983445383,0.870236998366,0.0,0.0,0.0,-0.709104993256,0.705102906347
1634830460517770053,0.350978898536,0.869440399685,0.0,0.0,0.0,-0.709094676797,0.705113281209
1634830460541240891,0.350974274205,0.868564139346,0.0,0.0,0.0,-0.708903040757,0.705305946951
1634830460558079234,0.350969748677,0.86761389484,0.0,0.0,0.0,-0.708652507364,0.705557668661
1634830460579717764,0.350965797,0.866662731284,0.0,0.0,0.0,-0.708475944447,0.705734961682
1634830460600636050,0.350962453299,0.865706618049,0.0,0.0,0.0,-0.708251982865,0.705959721774
1634830460618230655,0.350959692773,0.864757642082,0.0,0.0,0.0,-0.708051374502,0.706160924341
1634830460636540303,0.350957320072,0.863849286531,0.0,0.0,0.0,-0.707998386875,0.706214049833
1634830460656516566,0.350954776007,0.862888441063,0.0,0.0,0.0,-0.708079369626,0.706132853159
1634830460676465588,0.350951757502,0.861930770808,0.0,0.0,0.0,-0.708321812781,0.705889658189
1634830460696443885,0.350948429161,0.861055592324,0.0,0.0,0.0,-0.708474756832,0.705736153908
1634830460717550929,0.350944898552,0.860202342041,0.0,0.0,0.0,-0.708616020788,0.705594313386
1634830460737759371,0.35094136329,0.859362505801,0.0,0.0,0.0,-0.708572085639,0.70563843394
1634830460756370200,0.350938240016,0.858573980237,0.0,0.0,0.0,-0.708384823847,0.705826424373
1634830460779527615,0.350935559908,0.85779655439,0.0,0.0,0.0,-0.708223830223,0.705987964702
1634830460798651084,0.35093342494,0.857074699807,0.0,0.0,0.0,-0.708082725815,0.706129487702
1634830460817479714,0.35093137949,0.856296917486,0.0,0.0,0.0,-0.707956958391,0.706255580555
1634830460866951600,0.350929530429,0.855508145631,0.0,0.0,0.0,-0.707891591915,0.706321098436
1634830460866990012,0.350928079144,0.854751288318,0.0,0.0,0.0,-0.707684646303,0.706528443438
1634830460878224759,0.350926943638,0.853972334904,0.0,0.0,0.0,-0.707483716771,0.706729644562
1634830460928823919,0.350926248824,0.853191652077,0.0,0.0,0.0,-0.707394976265,0.706818468601
1634830460928839769,0.350925795904,0.852398500247,0.0,0.0,0.0,-0.707256720134,0.706956810438
1634830460937275637,0.350925414903,0.851645538768,0.0,0.0,0.0,-0.707292297904,0.706921215785
1634830460956693573,0.350924870628,0.850874038206,0.0,0.0,0.0,-0.707448298646,0.706765098702
1634830460977568497,0.350924084568,0.850103752383,0.0,0.0,0.0,-0.707560083218,0.706653188372
1634830460996268795,0.350923045355,0.849359186461,0.0,0.0,0.0,-0.707638460893,0.706574701404
1634830461017981054,0.350921815082,0.848662582418,0.0,0.0,0.0,-0.707769686642,0.706443253681
1634830461037585354,0.350920446449,0.847924827193,0.0,0.0,0.0,-0.707784332475,0.706428580044
1634830461056519995,0.350919263231,0.84725479362,0.0,0.0,0.0,-0.707631308612,0.706581864381
1634830461077549181,0.350918209171,0.846546482267,0.0,0.0,0.0,-0.707627147006,0.706586032144
1634830461096473753,0.350917291783,0.845786861735,0.0,0.0,0.0,-0.707528618085,0.706684692484
1634830461119104050,0.350916444758,0.844986061854,0.0,0.0,0.0,-0.707405076622,0.706808359861
1634830461137291648,0.350915658958,0.84416057055,0.0,0.0,0.0,-0.707421916581,0.706791505283
1634830461156556634,0.350915057146,0.843265479962,0.0,0.0,0.0,-0.707326409453,0.706887084682
1634830461178051262,0.350914735299,0.842353721556,0.0,0.0,0.0,-0.707168064977,0.707045492084
1634830461196126687,0.350914763702,0.841419190217,0.0,0.0,0.0,-0.706954086144,0.707259443263
1634830461220548404,0.350915291736,0.840480723834,0.0,0.0,0.0,-0.706861544179,0.707351933171
1634830461237534849,0.350916141115,0.839517122553,0.0,0.0,0.0,-0.706818151498,0.707395293109
1634830461257615729,0.350916822488,0.838588730548,0.0,0.0,0.0,-0.706908581826,0.707304925008
1634830461280163501,0.35091712841,0.837769364535,0.0,0.0,0.0,-0.707047277988,0.707166279378
1634830461305341770,0.350917194226,0.837004233987,0.0,0.0,0.0,-0.707120634327,0.707092927774
1634830461319570184,0.350917119917,0.836200255172,0.0,0.0,0.0,-0.707168143899,0.707045413148
1634830461341957901,0.350916847473,0.835491777092,0.0,0.0,0.0,-0.707294896943,0.706918615372
1634830461362653736,0.350916556122,0.834806128629,0.0,0.0,0.0,-0.707285550248,0.706927966918
1634830461377417002,0.350916238297,0.834111988977,0.0,0.0,0.0,-0.707245847241,0.706967687776
1634830461396188885,0.35091588148,0.833530863117,0.0,0.0,0.0,-0.707393784187,0.706819661649
1634830461417140785,0.350915439314,0.832895421737,0.0,0.0,0.0,-0.707343670406,0.70686981258
1634830461437386608,0.350914940988,0.832252659264,0.0,0.0,0.0,-0.707400262896,0.706813177618
1634830461457048968,0.350914510012,0.831562554862,0.0,0.0,0.0,-0.707334409332,0.70687907974
1634830461477162340,0.350914113227,0.830825935851,0.0,0.0,0.0,-0.707191852541,0.707021699596
1634830461496736161,0.350914043158,0.830008010765,0.0,0.0,0.0,-0.707109649974,0.707103912387
1634830461517805885,0.350914171187,0.829173885513,0.0,0.0,0.0,-0.707030338118,0.707183215991
1634830461537162294,0.350914403984,0.828266605288,0.0,0.0,0.0,-0.70696089364,0.70725263864
1634830461556080845,0.350914849925,0.827313899704,0.0,0.0,0.0,-0.706893607506,0.70731989062
1634830461576418763,0.350915534389,0.826369648737,0.0,0.0,0.0,-0.70686191266,0.707351564946
1634830461597219827,0.350916167574,0.825450481225,0.0,0.0,0.0,-0.706895630134,0.707317869205
1634830461617301671,0.350916564215,0.824567404859,0.0,0.0,0.0,-0.706964685166,0.707248848658
1634830461637097211,0.350916777808,0.823720840522,0.0,0.0,0.0,-0.70706141077,0.707152148692
1634830461656536528,0.350916731637,0.822874816741,0.0,0.0,0.0,-0.70723395778,0.706979581716
1634830461676917628,0.350916192992,0.822048724954,0.0,0.0,0.0,-0.707361427855,0.70685204278
1634830461696646492,0.350915455684,0.821286195159,0.0,0.0,0.0,-0.707546815363,0.706666473005
1634830461717485499,0.3509147116,0.82057142391,0.0,0.0,0.0,-0.707464424073,0.706748957318
1634830461740254218,0.35091395286,0.819885360054,0.0,0.0,0.0,-0.707478675885,0.706734690792
1634830461759763537,0.350913165003,0.81920717426,0.0,0.0,0.0,-0.707558714803,0.706654558541
1634830461778533717,0.350912368708,0.818516785341,0.0,0.0,0.0,-0.707504178472,0.706709160437
1634830461799540671,0.35091150622,0.817780594973,0.0,0.0,0.0,-0.707445497918,0.706767902126
1634830461816102061,0.35091079765,0.816982398491,0.0,0.0,0.0,-0.707416056476,0.706797370566
1634830461835855081,0.350910345446,0.81625650588,0.0,0.0,0.0,-0.70734340421,0.706870078954
1634830461856374502,0.35090983878,0.815408110806,0.0,0.0,0.0,-0.707226485937,0.706987056168
1634830461877117948,0.350909561189,0.814538374917,0.0,0.0,0.0,-0.707161499375,0.707052058764
1634830461904019570,0.350909559266,0.813691873348,0.0,0.0,0.0,-0.707072886553,0.707140674195
1634830461917345895,0.350909620783,0.812841832301,0.0,0.0,0.0,-0.707059531897,0.707154027319
1634830461937241967,0.350909600526,0.81202480961,0.0,0.0,0.0,-0.707167961831,0.707045595248
1634830461977057994,0.350909266716,0.811178191403,0.0,0.0,0.0,-0.707286201494,0.706927315341
1634830461977068083,0.350908682549,0.810409758577,0.0,0.0,0.0,-0.707471273218,0.706742101174
1634830461996094088,0.350907817009,0.809602310341,0.0,0.0,0.0,-0.707542976211,0.706670316919
1634830462017702310,0.350906830012,0.808873961708,0.0,0.0,0.0,-0.707564161037,0.706649105296
1634830462038111883,0.350905879909,0.808179386874,0.0,0.0,0.0,-0.707615817505,0.706597378156
1634830462055766733,0.350904941084,0.807459004466,0.0,0.0,0.0,-0.707580717896,0.706632526609
1634830462077366689,0.350903853053,0.806703642952,0.0,0.0,0.0,-0.707585850231,0.70662738735
1634830462098486668,0.35090267685,0.805919766339,0.0,0.0,0.0,-0.707684914961,0.70652817434
1634830462119112169,0.350901451816,0.805110147743,0.0,0.0,0.0,-0.707683084636,0.706530007657
1634830462140541693,0.350900125654,0.804222648737,0.0,0.0,0.0,-0.707564456526,0.706648809424
1634830462158643508,0.350899000527,0.803338085053,0.0,0.0,0.0,-0.707484791477,0.706728568709
1634830462179100561,0.35089807167,0.802376517881,0.0,0.0,0.0,-0.707429583576,0.706783831367
1634830462195992245,0.350897360105,0.801463008092,0.0,0.0,0.0,-0.707376417404,0.706837042112
1634830462218608957,0.350896715543,0.800510289115,0.0,0.0,0.0,-0.707346930944,0.706866549841
1634830462236851067,0.350896144277,0.799646616405,0.0,0.0,0.0,-0.707380469356,0.706832987044
1634830462256862287,0.350895476686,0.798827348908,0.0,0.0,0.0,-0.707425714294,0.706787704162
1634830462275655110,0.350894606661,0.797985184985,0.0,0.0,0.0,-0.707459042845,0.706754343953
1634830462295631563,0.35089375663,0.797237046571,0.0,0.0,0.0,-0.70758425007,0.706628989678
1634830462317036571,0.350892715697,0.796522577621,0.0,0.0,0.0,-0.707715401346,0.706497636725
1634830462336652983,0.350891374938,0.795859897914,0.0,0.0,0.0,-0.707844622171,0.706368169487
1634830462356680032,0.350890015946,0.795244277104,0.0,0.0,0.0,-0.707984796102,0.706227674683
1634830462376655815,0.3508887138,0.794687425534,0.0,0.0,0.0,-0.707893239379,0.706319447305
1634830462395526666,0.350887443233,0.794145833961,0.0,0.0,0.0,-0.707977283554,0.706235205843
1634830462415562511,0.350886097793,0.793574702766,0.0,0.0,0.0,-0.707906245174,0.706306412291
1634830462435911430,0.350884778498,0.792957556978,0.0,0.0,0.0,-0.707866296253,0.706346449435
1634830462455665802,0.350883418131,0.792287695256,0.0,0.0,0.0,-0.707746178632,0.706466805046
1634830462478344441,0.350882040919,0.791570909345,0.0,0.0,0.0,-0.707772815409,0.706440119025
1634830462497232615,0.350880674104,0.790754935913,0.0,0.0,0.0,-0.707737680013,0.706475318953
1634830462516955177,0.350879372965,0.789878349154,0.0,0.0,0.0,-0.707566469864,0.706646793472
1634830462536599172,0.350878121743,0.788937387204,0.0,0.0,0.0,-0.707478961507,0.706734404869
1634830462563575024,0.350877117162,0.787957283979,0.0,0.0,0.0,-0.707423484584,0.706789935879
1634830462581922725,0.350876256966,0.786954747279,0.0,0.0,0.0,-0.707417844199,0.706795581275
1634830462596676923,0.350875396416,0.786000211506,0.0,0.0,0.0,-0.707456486176,0.706756903162
1634830462617007297,0.350874215323,0.785055970013,0.0,0.0,0.0,-0.70763087614,0.706582297495
1634830462638650344,0.350872668965,0.784110836754,0.0,0.0,0.0,-0.707796713851,0.706416174689
1634830462656454377,0.350870719592,0.783193153029,0.0,0.0,0.0,-0.708012983856,0.706199415669
1634830462692144414,0.350868397589,0.782375980784,0.0,0.0,0.0,-0.708206132009,0.706005718521
1634830462711860685,0.35086596297,0.781581113689,0.0,0.0,0.0,-0.708156921681,0.706055078783
1634830462716641054,0.350863701723,0.780814070906,0.0,0.0,0.0,-0.708178401817,0.706033534048
1634830462742285566,0.350861360553,0.780024182085,0.0,0.0,0.0,-0.708153137623,0.706058874085
1634830462757352536,0.350859253562,0.779307943395,0.0,0.0,0.0,-0.708113365595,0.706098761836
1634830462775555363,0.350857070612,0.778550017378,0.0,0.0,0.0,-0.70813237245,0.706079700238
1634830462797016527,0.350854801667,0.777755320148,0.0,0.0,0.0,-0.708104624769,0.706107527492
1634830462818400213,0.350852804687,0.77699640925,0.0,0.0,0.0,-0.707959867648,0.706252664278
1634830462836610404,0.350850877463,0.77621454145,0.0,0.0,0.0,-0.70791076351,0.706301883692
1634830462855537130,0.35084914505,0.775382905969,0.0,0.0,0.0,-0.707838275507,0.706374529359
1634830462877231205,0.350847725526,0.774597303868,0.0,0.0,0.0,-0.707674772866,0.706538332894
1634830462896256077,0.350846255949,0.773735657041,0.0,0.0,0.0,-0.707682457751,0.706530635565
1634830462916334254,0.350844803778,0.772947530558,0.0,0.0,0.0,-0.707833108916,0.706379706618
1634830462935893337,0.35084324047,0.772215963583,0.0,0.0,0.0,-0.707957659923,0.706254877332
1634830462957165904,0.35084141837,0.771519587329,0.0,0.0,0.0,-0.708049191547,0.706163113133
1634830462975495981,0.350839538928,0.77086232376,0.0,0.0,0.0,-0.708194521438,0.706017365088
1634830463000306605,0.350837480466,0.770183947056,0.0,0.0,0.0,-0.70818741208,0.706024496297
1634830463016427670,0.350835672624,0.769627555754,0.0,0.0,0.0,-0.708276479532,0.705935144714
1634830463037524796,0.350833482096,0.768983486862,0.0,0.0,0.0,-0.708308939184,0.705902575907
1634830463056422187,0.350831622944,0.768455395267,0.0,0.0,0.0,-0.708407548843,0.705803616272
1634830463075258111,0.350829187125,0.767804509124,0.0,0.0,0.0,-0.70839264882,0.70581857095
1634830463095187505,0.350826815808,0.767181553201,0.0,0.0,0.0,-0.708505501667,0.705705288423
1634830463116555472,0.350823986361,0.766445920971,0.0,0.0,0.0,-0.708425710388,0.705785387254
1634830463135321926,0.350820857348,0.765640379322,0.0,0.0,0.0,-0.708442587983,0.705768446116
1634830463155308068,0.350817772785,0.764822320787,0.0,0.0,0.0,-0.7084524015,0.705758595278
1634830463176553413,0.350814401019,0.763858369004,0.0,0.0,0.0,-0.708315362495,0.705896130641
1634830463195316189,0.350811149671,0.762897795037,0.0,0.0,0.0,-0.708266784985,0.70594487128
1634830463216213786,0.350808001886,0.761880868209,0.0,0.0,0.0,-0.708137037254,0.706075021842
1634830463235853823,0.350804986867,0.760822855311,0.0,0.0,0.0,-0.708091210337,0.706120979608
1634830463256362414,0.350802161033,0.759792732247,0.0,0.0,0.0,-0.708101867539,0.70611029251
1634830463275316352,0.350799296177,0.75883588512,0.0,0.0,0.0,-0.70824803222,0.705963685225
1634830463298451584,0.3507957445,0.757823767106,0.0,0.0,0.0,-0.708456228003,0.705754754149
1634830463326587443,0.350791629176,0.756832511621,0.0,0.0,0.0,-0.708670082181,0.705540016315
1634830463337174894,0.350787683699,0.756003059659,0.0,0.0,0.0,-0.708931178296,0.705277664781
1634830463355099743,0.350782990532,0.755107110796,0.0,0.0,0.0,-0.709025358707,0.705182983849
1634830463375065799,0.350778592816,0.754297726847,0.0,0.0,0.0,-0.709014015821,0.705194388357
1634830463395150477,0.35077465579,0.753576029194,0.0,0.0,0.0,-0.709011903932,0.705196511678
1634830463416287517,0.350770523054,0.75281063345,0.0,0.0,0.0,-0.709026300509,0.705182036914
1634830463435426936,0.350766508281,0.75205117171,0.0,0.0,0.0,-0.70896090856,0.705247779247
1634830463455399402,0.350762670409,0.751315515613,0.0,0.0,0.0,-0.708890819073,0.705318230754
1634830463476530540,0.350758608814,0.750503685524,0.0,0.0,0.0,-0.708835550069,0.705373775355
1634830463495080303,0.350755093803,0.749745858826,0.0,0.0,0.0,-0.708711774091,0.705498136967
1634830463516445706,0.350751756848,0.748971983237,0.0,0.0,0.0,-0.708515079109,0.705695672848
1634830463535282312,0.350748493302,0.748124530326,0.0,0.0,0.0,-0.708400536633,0.705810654283
1634830463555209702,0.350745686591,0.747357462617,0.0,0.0,0.0,-0.708422062559,0.70578904871
1634830463575337704,0.350742701536,0.746560190409,0.0,0.0,0.0,-0.708478995941,0.705731898323
1634830463595854150,0.350739465195,0.745766511719,0.0,0.0,0.0,-0.708573008832,0.705637506908
1634830463616057913,0.350735902222,0.744990117488,0.0,0.0,0.0,-0.708873909856,0.705335225212
1634830463636139104,0.350731812854,0.744213231075,0.0,0.0,0.0,-0.709084444165,0.705123571471
1634830463656067827,0.350727901925,0.7435257674,0.0,0.0,0.0,-0.70910550509,0.705102391607
1634830463676226605,0.350724047828,0.742859816399,0.0,0.0,0.0,-0.709211067447,0.70499621404
1634830463694990804,0.35071969714,0.742126104622,0.0,0.0,0.0,-0.709222830955,0.704984380006
1634830463716201324,0.350715577685,0.741448069321,0.0,0.0,0.0,-0.709257883267,0.704949115202
1634830463734997784,0.350711010715,0.74071230558,0.0,0.0,0.0,-0.709302712678,0.704904008917
1634830463754945683,0.350706079467,0.739923867202,0.0,0.0,0.0,-0.709347657418,0.704858780832
1634830463775078714,0.350701622895,0.739210238652,0.0,0.0,0.0,-0.709298626802,0.704908120266
1634830463796055130,0.350696647026,0.738408877114,0.0,0.0,0.0,-0.709266207356,0.704940740136
1634830463817646520,0.350691182184,0.737495581148,0.0,0.0,0.0,-0.709194376923,0.705013003951
1634830463836672454,0.350686142916,0.736592994948,0.0,0.0,0.0,-0.709019892107,0.705188480193
1634830463857102075,0.350681050952,0.735616324874,0.0,0.0,0.0,-0.708884581806,0.705324499558
1634830463875910568,0.350676269667,0.734657310633,0.0,0.0,0.0,-0.708808568185,0.705400888621
1634830463894744338,0.35067180093,0.733733394035,0.0,0.0,0.0,-0.708776596423,0.705433013378
1634830463915044575,0.350667356817,0.732829961224,0.0,0.0,0.0,-0.708892488214,0.705316553154
1634830463936260245,0.350662602918,0.731917632427,0.0,0.0,0.0,-0.709082898304,0.705125126012
1634830463956810354,0.350656937493,0.730948223465,0.0,0.0,0.0,-0.709329718236,0.7048768338
1634830463976888389,0.350651070986,0.730042225455,0.0,0.0,0.0,-0.709527012631,0.704678237458
1634830463994747194,0.350645211386,0.729207831536,0.0,0.0,0.0,-0.709677845759,0.704526333957
1634830464016822741,0.350639417987,0.728417247464,0.0,0.0,0.0,-0.709750485976,0.704453155048
1634830464035363006,0.350633480166,0.727629046561,0.0,0.0,0.0,-0.709715848313,0.704488051462
1634830464054676815,0.350627733148,0.726854657033,0.0,0.0,0.0,-0.70970919014,0.70449475898
1634830464075009963,0.350622344181,0.726109458643,0.0,0.0,0.0,-0.709618019883,0.704586592164
1634830464094995064,0.350617043275,0.725356529744,0.0,0.0,0.0,-0.709555167116,0.704649888114
1634830464115137641,0.350611639323,0.724581587963,0.0,0.0,0.0,-0.709560333347,0.704644685881
1634830464135764856,0.350606902333,0.723870383645,0.0,0.0,0.0,-0.709389608958,0.704816559612
1634830464156771200,0.350602222653,0.723125167872,0.0,0.0,0.0,-0.709240108444,0.704966998217
1634830464175043617,0.350597624863,0.722321256784,0.0,0.0,0.0,-0.709043391965,0.705164851868
1634830464194622759,0.350593383501,0.721527979173,0.0,0.0,0.0,-0.708893646847,0.705315388645
1634830464214737255,0.350589435748,0.720743397573,0.0,0.0,0.0,-0.708850090827,0.705359162934
1634830464234792116,0.350585437194,0.719937536107,0.0,0.0,0.0,-0.708953436814,0.705255290253
1634830464256082977,0.350581079603,0.719122981544,0.0,0.0,0.0,-0.709106677,0.705101213043
1634830464275967607,0.35057648658,0.718347695436,0.0,0.0,0.0,-0.709228329267,0.704978848595
1634830464295612222,0.35057157238,0.717572406755,0.0,0.0,0.0,-0.709414432449,0.704791574179
1634830464316569462,0.350566536508,0.716835812361,0.0,0.0,0.0,-0.709531254312,0.704673966565
1634830464335015188,0.350562102215,0.716210627538,0.0,0.0,0.0,-0.709655394659,0.7045489485
1634830464356680999,0.350557045147,0.715508007461,0.0,0.0,0.0,-0.709631661215,0.704572853153
1634830464375759543,0.35055212186,0.714839846329,0.0,0.0,0.0,-0.709765034896,0.704438496421
1634830464394820493,0.350546769191,0.714120403749,0.0,0.0,0.0,-0.709737228754,0.70446651171
1634830464415913520,0.350541184426,0.713365126411,0.0,0.0,0.0,-0.709633949464,0.704570548467
1634830464436345376,0.350535712874,0.712607213116,0.0,0.0,0.0,-0.709653570449,0.704550785926
1634830464477949598,0.350530585146,0.711882574817,0.0,0.0,0.0,-0.709604474415,0.704600234097
1634830464477960729,0.350524936244,0.71106960843,0.0,0.0,0.0,-0.709455510789,0.704750223988
1634830464498310511,0.350519154891,0.710177972181,0.0,0.0,0.0,-0.709313023782,0.704893633319
1634830464514892168,0.350513643314,0.709264031267,0.0,0.0,0.0,-0.709175604443,0.705031887267
1634830464535524313,0.350508193915,0.708319115448,0.0,0.0,0.0,-0.709097446952,0.705110495402
1634830464556622970,0.350503168017,0.707425686561,0.0,0.0,0.0,-0.709029971627,0.705178345764
1634830464575724888,0.35049837447,0.706564231852,0.0,0.0,0.0,-0.709126967786,0.705080806404
1634830464594614644,0.350493240354,0.705689600516,0.0,0.0,0.0,-0.709303628151,0.70490308773
1634830464616617794,0.350487511747,0.704809132191,0.0,0.0,0.0,-0.709500531401,0.704704899899
1634830464646473088,0.350481700335,0.70397587195,0.0,0.0,0.0,-0.709677200828,0.704526983603
1634830464654874681,0.350475941045,0.703189100529,0.0,0.0,0.0,-0.709742760004,0.704460939032
1634830464682516894,0.350469707751,0.70238034084,0.0,0.0,0.0,-0.709845874992,0.704357035712
1634830464694496641,0.350463303196,0.701577934504,0.0,0.0,0.0,-0.709949627337,0.704252459452
1634830464726617663,0.350457270492,0.700824157723,0.0,0.0,0.0,-0.709956715982,0.70424531339
1634830464739371194,0.350451373349,0.700091688972,0.0,0.0,0.0,-0.709875206941,0.704327473957
1634830464754607404,0.350381828465,0.69859395971,0.0,0.0,0.0,-0.711940315309,0.702239978524
1634830464775719909,0.35037116095,0.6978100753,0.0,0.0,0.0,-0.711901094306,0.702279739083
1634830464797679265,0.350360385099,0.697010440332,0.0,0.0,0.0,-0.711780187327,0.702402281409
1634830464814563786,0.350349618837,0.696186666195,0.0,0.0,0.0,-0.711607946843,0.702576778715
1634830464841857120,0.350339274875,0.695367939731,0.0,0.0,0.0,-0.711487425582,0.702698828261
1634830464854795521,0.350329206629,0.694550719117,0.0,0.0,0.0,-0.711389331833,0.702798134997
1634830464875417466,0.350319274236,0.693728426163,0.0,0.0,0.0,-0.711317812533,0.702870521201
1634830464894335497,0.350308947046,0.692860323985,0.0,0.0,0.0,-0.711344262659,0.702843752183
1634830464914309746,0.3502985298,0.692002534392,0.0,0.0,0.0,-0.711518232355,0.702667634822
1634830464936840173,0.350288104279,0.691192184224,0.0,0.0,0.0,-0.711810245328,0.702371820794
1634830464957521943,0.350277363055,0.690395496106,0.0,0.0,0.0,-0.711945645508,0.702234574656
1634830464979583082,0.350266727231,0.689633693118,0.0,0.0,0.0,-0.712011207398,0.702168099916
1634830464996027029,0.350255897853,0.688871231018,0.0,0.0,0.0,-0.712174965131,0.70200200786
1634830465020383954,0.350244646634,0.688088401352,0.0,0.0,0.0,-0.712207752164,0.701968744145
1634830465036072530,0.350234192756,0.687362071981,0.0,0.0,0.0,-0.712105384996,0.702072589309
1634830465055301920,0.350223681095,0.68662734536,0.0,0.0,0.0,-0.712133494055,0.702044077423
1634830465075294154,0.350212983965,0.685875772933,0.0,0.0,0.0,-0.712145488457,0.702031910436
1634830465094339394,0.350202311478,0.6851242214,0.0,0.0,0.0,-0.712042927119,0.702135934089
1634830465114400397,0.350191120425,0.684325070387,0.0,0.0,0.0,-0.711989970404,0.702189633962
1634830465137014604,0.350180271979,0.683526576126,0.0,0.0,0.0,-0.71183403433,0.702347711301
1634830465154770645,0.350169582359,0.682708621597,0.0,0.0,0.0,-0.711595687496,0.702589195431
1634830465174370806,0.350158968989,0.68185887313,0.0,0.0,0.0,-0.71147589064,0.702710507278
1634830465194379711,0.350147799741,0.680942178531,0.0,0.0,0.0,-0.711357214065,0.702830643895
1634830465214430555,0.350137002298,0.680039618874,0.0,0.0,0.0,-0.711339810235,0.702848258428
1634830465238956820,0.35012709614,0.679221915227,0.0,0.0,0.0,-0.711366007924,0.702821743239
1634830465256087216,0.350116637806,0.678379108407,0.0,0.0,0.0,-0.711587438893,0.702597549675
1634830465275284797,0.350105667808,0.677540820118,0.0,0.0,0.0,-0.711768908785,0.70241371035
1634830465295275187,0.350094952747,0.676742088696,0.0,0.0,0.0,-0.711892982432,0.702287961996
1634830465314197575,0.35008467401,0.675987604024,0.0,0.0,0.0,-0.711995942189,0.702183578779
1634830465334118603,0.350073706599,0.675201073892,0.0,0.0,0.0,-0.71207311924,0.702105314648
1634830465354790332,0.350063332183,0.674472939812,0.0,0.0,0.0,-0.712122224504,0.702055508751
1634830465375231966,0.350052481658,0.673709789538,0.0,0.0,0.0,-0.71213180869,0.702045787005
1634830465394533191,0.350042408282,0.672999427192,0.0,0.0,0.0,-0.712052421494,0.70212630562
1634830465415374642,0.350031879389,0.672254089367,0.0,0.0,0.0,-0.712062283536,0.702116304017
1634830465434913948,0.350021263292,0.671492467243,0.0,0.0,0.0,-0.712022352842,0.702156798054
1634830465456259202,0.350010502177,0.670709379499,0.0,0.0,0.0,-0.711864217284,0.702317119363
1634830465475206608,0.349999279159,0.669869779559,0.0,0.0,0.0,-0.71172070195,0.702462555882
1634830465495155660,0.349988173652,0.669008754479,0.0,0.0,0.0,-0.711594934584,0.702589957994
1634830465515185213,0.349977807874,0.668186240363,0.0,0.0,0.0,-0.71148394832,0.702702348995
1634830465534041246,0.34996735417,0.667336465972,0.0,0.0,0.0,-0.711397803025,0.702789560147
1634830465554188554,0.349957549239,0.666525710257,0.0,0.0,0.0,-0.71141022816,0.702776982598
1634830465575293874,0.349947750488,0.665723932607,0.0,0.0,0.0,-0.711487624454,0.702698626901
1634830465594133045,0.349937292091,0.664905849883,0.0,0.0,0.0,-0.711714723491,0.702468613083
1634830465614157699,0.349926632881,0.664105985214,0.0,0.0,0.0,-0.711887794319,0.702293221027
1634830465635403305,0.349916252922,0.663359044011,0.0,0.0,0.0,-0.712032333276,0.702146677248
1634830465653966553,0.349905476842,0.662603640905,0.0,0.0,0.0,-0.712198751164,0.701977876318
1634830465676564949,0.349894971167,0.661877482193,0.0,0.0,0.0,-0.712205606723,0.701970920874
1634830465693824790,0.349885025101,0.661192549877,0.0,0.0,0.0,-0.712179924598,0.701996976489
1634830465715208387,0.34987523914,0.660511740532,0.0,0.0,0.0,-0.712189350757,0.701987413469
1634830465735131230,0.349864975576,0.659786715795,0.0,0.0,0.0,-0.712008864215,0.702170475938
1634830465756293187,0.34985435301,0.659028632142,0.0,0.0,0.0,-0.711996321776,0.702183193887
1634830465775596466,0.349844129259,0.658288484607,0.0,0.0,0.0,-0.712003506629,0.70217590855
1634830465797484117,0.349833724442,0.657520209059,0.0,0.0,0.0,-0.711772079763,0.702410497124
1634830465815120101,0.349822811702,0.656683590814,0.0,0.0,0.0,-0.71161234436,0.702572324644
1634830465834994601,0.349811831298,0.655799848353,0.0,0.0,0.0,-0.711393919132,0.70279349159
1634830465853939532,0.349801489432,0.654939440375,0.0,0.0,0.0,-0.711263497027,0.702925485238
1634830465874096808,0.349791103501,0.654049909065,0.0,0.0,0.0,-0.711154799227,0.70303545539
1634830465893772602,0.349780928113,0.65318095816,0.0,0.0,0.0,-0.711291259324,0.702897392518
1634830465913989861,0.349770534032,0.652320758734,0.0,0.0,0.0,-0.711523201021,0.702662603537
1634830465933703417,0.349759277012,0.651440741422,0.0,0.0,0.0,-0.71175255909,0.702430277415
1634830465954823044,0.349748839803,0.650658218913,0.0,0.0,0.0,-0.711920600888,0.702259964707
1634830465973933288,0.349739042848,0.649941511417,0.0,0.0,0.0,-0.711971928701,0.702207927
1634830465994542620,0.349728637476,0.649193583469,0.0,0.0,0.0,-0.712002539887,0.702176888821
1634830466015313637,0.34971846329,0.648466259478,0.0,0.0,0.0,-0.712079702544,0.702098637817
1634830466035149705,0.349708358947,0.647744476842,0.0,0.0,0.0,-0.712002944075,0.702176478977
1634830466053887663,0.349697961242,0.646997288706,0.0,0.0,0.0,-0.711975057336,0.702204754848
1634830466074817672,0.349687573843,0.646239226333,0.0,0.0,0.0,-0.711940388729,0.70223990409
1634830466093669948,0.349677631872,0.645507542578,0.0,0.0,0.0,-0.711865675008,0.70231564182
1634830466114042340,0.349666399163,0.644673139623,0.0,0.0,0.0,-0.711773208058,0.702409353789
1634830466134861860,0.349655605795,0.643840358548,0.0,0.0,0.0,-0.711584696427,0.702600327221
1634830466153728613,0.349645121708,0.642997444545,0.0,0.0,0.0,-0.71135357926,0.702834322777
1634830466173781651,0.349634199683,0.642087087005,0.0,0.0,0.0,-0.711282661488,0.702906092921
1634830466193719882,0.349623927553,0.641216059775,0.0,0.0,0.0,-0.711243626379,0.702945591021
1634830466215006957,0.349614090801,0.640370767449,0.0,0.0,0.0,-0.711274832551,0.702914015068
1634830466236047805,0.349604449014,0.639558292684,0.0,0.0,0.0,-0.71131945856,0.702868855387
1634830466253865913,0.349595165493,0.638803068096,0.0,0.0,0.0,-0.71151634033,0.702669550673
1634830466278399082,0.349585094661,0.638010350618,0.0,0.0,0.0,-0.711660203374,0.702523846524
1634830466293550211,0.349575420829,0.637272160331,0.0,0.0,0.0,-0.711789862638,0.702392476786
1634830466315177579,0.349566011208,0.636569148355,0.0,0.0,0.0,-0.71187165924,0.702309576164
1634830466333966425,0.349556521744,0.63587120636,0.0,0.0,0.0,-0.711897198888,0.702283687846
1634830466354861417,0.349547043916,0.63517678073,0.0,0.0,0.0,-0.711948843584,0.70223133234
1634830466378057586,0.349537972727,0.634514879487,0.0,0.0,0.0,-0.711936834349,0.70224350755
1634830466393680508,0.349527854244,0.633777370662,0.0,0.0,0.0,-0.711911473862,0.702269217169
1634830466416665436,0.349517985694,0.633045860234,0.0,0.0,0.0,-0.711839054238,0.702342623554
1634830466436713635,0.349507974513,0.632294367332,0.0,0.0,0.0,-0.711804477252,0.702377666334
1634830466454707265,0.349496455497,0.631421816078,0.0,0.0,0.0,-0.711686177033,0.702497534102
1634830466474994798,0.349485035652,0.630529656107,0.0,0.0,0.0,-0.711584415622,0.702600611617
1634830466493685948,0.349474048407,0.629636628634,0.0,0.0,0.0,-0.711325589857,0.70286265032
1634830466515213658,0.349463027288,0.628706765804,0.0,0.0,0.0,-0.71117529363,0.703014723694
1634830466535046549,0.349452559321,0.627792293071,0.0,0.0,0.0,-0.711075571162,0.703115589428
1634830466554436884,0.349442297429,0.626881732141,0.0,0.0,0.0,-0.711121125392,0.703069516493
1634830466575203873,0.349432147362,0.625999462556,0.0,0.0,0.0,-0.711275260303,0.702913582228
1634830466599480096,0.349420879581,0.625068826041,0.0,0.0,0.0,-0.711527954725,0.702657789855
1634830466613773863,0.349409252062,0.624154684215,0.0,0.0,0.0,-0.711682871943,0.702500882407
1634830466634852082,0.349399518682,0.623421653337,0.0,0.0,0.0,-0.711856371603,0.702325071607
1634830466654479554,0.349388477205,0.622611436125,0.0,0.0,0.0,-0.711971364196,0.702208499354
