%time,field.position.x,field.position.y,field.position.z,field.orientation.x,field.orientation.y,field.orientation.z,field.orientation.w
1634830866056583704,0.311620800227,0.796709767597,0.0,0.0,0.0,-0.756310118994,0.654213270966
1634830866073358534,0.311620800227,0.796709767597,0.0,0.0,0.0,-0.756310118994,0.654213270966
1634830866092771157,0.311620800227,0.796709767597,0.0,0.0,0.0,-0.756310118994,0.654213270966
1634830866113639485,0.311620800227,0.796709767597,0.0,0.0,0.0,-0.756310118994,0.654213270966
1634830866133109706,0.311620800227,0.796709767597,0.0,0.0,0.0,-0.756310118994,0.654213270966
1634830866152614784,0.311620800227,0.796709767597,0.0,0.0,0.0,-0.756310118994,0.654213270966
1634830866173172694,0.311620800227,0.796709767597,0.0,0.0,0.0,-0.756310118994,0.654213270966
1634830866193120991,0.311620800227,0.796709767597,0.0,0.0,0.0,-0.756310118994,0.654213270966
1634830866214206770,0.311620800227,0.796709767597,0.0,0.0,0.0,-0.756310118994,0.654213270966
1634830866232075020,0.311620800227,0.796709767597,0.0,0.0,0.0,-0.756310118994,0.654213270966
1634830866252691161,0.311620800227,0.796709767597,0.0,0.0,0.0,-0.756310118994,0.654213270966
1634830866273338811,0.311620800227,0.796709767597,0.0,0.0,0.0,-0.756310118994,0.654213270966
1634830866293026795,0.311620800227,0.796709767597,0.0,0.0,0.0,-0.756310118994,0.654213270966
1634830866312207348,0.311620800227,0.796709767597,0.0,0.0,0.0,-0.756310118994,0.654213270966
1634830866332642726,0.311620800227,0.796709767597,0.0,0.0,0.0,-0.756310118994,0.654213270966
1634830866355569661,0.311620800227,0.796709767597,0.0,0.0,0.0,-0.756310118994,0.654213270966
1634830866372649879,0.311620800227,0.796709767597,0.0,0.0,0.0,-0.756310118994,0.654213270966
1634830866393130703,0.311620800227,0.796709767597,0.0,0.0,0.0,-0.756310118994,0.654213270966
1634830866412562582,0.311620800227,0.796709767597,0.0,0.0,0.0,-0.756310118994,0.654213270966
1634830866433073594,0.311620800227,0.796709767597,0.0,0.0,0.0,-0.756310118994,0.654213270966
1634830866452197060,0.311620800227,0.796709767597,0.0,0.0,0.0,-0.756310118994,0.654213270966
1634830866472444492,0.311620800227,0.796709767597,0.0,0.0,0.0,-0.756310118994,0.654213270966
1634830866492884960,0.311620800227,0.796709767597,0.0,0.0,0.0,-0.756310118994,0.654213270966
1634830866513285283,0.311620800227,0.796709767597,0.0,0.0,0.0,-0.756310118994,0.654213270966
1634830866533007171,0.311620800227,0.796709767597,0.0,0.0,0.0,-0.756310118994,0.654213270966
1634830866552941981,0.311620800227,0.796709767597,0.0,0.0,0.0,-0.756310118994,0.654213270966
1634830866573439919,0.311620800227,0.796709767597,0.0,0.0,0.0,-0.756310118994,0.654213270966
1634830866592971045,0.311620800227,0.796709767597,0.0,0.0,0.0,-0.756310118994,0.654213270966
1634830866611996074,0.311620800227,0.796709767597,0.0,0.0,0.0,-0.756310118994,0.654213270966
1634830866632084586,0.311620800227,0.796709767597,0.0,0.0,0.0,-0.756310118994,0.654213270966
1634830866652048302,0.311620800227,0.796709767597,0.0,0.0,0.0,-0.756310118994,0.654213270966
1634830866673060873,0.311620800227,0.796709767597,0.0,0.0,0.0,-0.756310118994,0.654213270966
1634830866691981394,0.311620800227,0.796709767597,0.0,0.0,0.0,-0.756310118994,0.654213270966
1634830866712881853,0.311620800227,0.796709767597,0.0,0.0,0.0,-0.756310118994,0.654213270966
1634830866732813418,0.311620800227,0.796709767597,0.0,0.0,0.0,-0.756310118994,0.654213270966
1634830866752967273,0.311620800227,0.796709767597,0.0,0.0,0.0,-0.756310118994,0.654213270966
1634830866771732991,0.311620800227,0.796709767597,0.0,0.0,0.0,-0.756310118994,0.654213270966
1634830866792731235,0.311620800227,0.796709767597,0.0,0.0,0.0,-0.756310118994,0.654213270966
1634830866813268980,0.311620800227,0.796709767597,0.0,0.0,0.0,-0.756310118994,0.654213270966
1634830866833181979,0.311620800227,0.796709767597,0.0,0.0,0.0,-0.756310118994,0.654213270966
1634830866851704055,0.311620800227,0.796709767597,0.0,0.0,0.0,-0.756310118994,0.654213270966
1634830866871774913,0.311620800227,0.796709767597,0.0,0.0,0.0,-0.756310118994,0.654213270966
1634830866891614523,0.311620800227,0.796709767597,0.0,0.0,0.0,-0.756310118994,0.654213270966
1634830866914737419,0.311620800227,0.796709767597,0.0,0.0,0.0,-0.756310118994,0.654213270966
1634830866933214560,0.311620800227,0.796709767597,0.0,0.0,0.0,-0.756310118994,0.654213270966
1634830866952840247,0.311620800227,0.796709767597,0.0,0.0,0.0,-0.756310118994,0.654213270966
1634830866972726957,0.311620800227,0.796709767597,0.0,0.0,0.0,-0.756310118994,0.654213270966
1634830866992095386,0.311620800227,0.796709767597,0.0,0.0,0.0,-0.756310118994,0.654213270966
1634830867011973910,0.311620800227,0.796709767597,0.0,0.0,0.0,-0.756310118994,0.654213270966
1634830867032990911,0.311620800227,0.796709767597,0.0,0.0,0.0,-0.756310118994,0.654213270966
1634830867052984683,0.311620800227,0.796709767597,0.0,0.0,0.0,-0.756310118994,0.654213270966
1634830867071778794,0.311620800227,0.796709767597,0.0,0.0,0.0,-0.756310118994,0.654213270966
1634830867092382190,0.311620800227,0.796709767597,0.0,0.0,0.0,-0.756310118994,0.654213270966
1634830867113070338,0.311620800227,0.796709767597,0.0,0.0,0.0,-0.756310118994,0.654213270966
1634830867131922709,0.311620800227,0.796709767597,0.0,0.0,0.0,-0.756310118994,0.654213270966
1634830867152628971,0.311620800227,0.796709767597,0.0,0.0,0.0,-0.756310118994,0.654213270966
1634830867174108215,0.311620800227,0.796709767597,0.0,0.0,0.0,-0.756310118994,0.654213270966
1634830867191513478,0.311620800227,0.796709767597,0.0,0.0,0.0,-0.756310118994,0.654213270966
1634830867213016157,0.311620800227,0.796709767597,0.0,0.0,0.0,-0.756310118994,0.654213270966
1634830867232813247,0.311620800227,0.796709767597,0.0,0.0,0.0,-0.756310118994,0.654213270966
1634830867252106494,0.311620800227,0.796709767597,0.0,0.0,0.0,-0.756310118994,0.654213270966
1634830867273094439,0.311620800227,0.796709767597,0.0,0.0,0.0,-0.756310118994,0.654213270966
1634830867292499296,0.311620800227,0.796709767597,0.0,0.0,0.0,-0.756310118994,0.654213270966
1634830867314574989,0.311620800227,0.796709767597,0.0,0.0,0.0,-0.756310118994,0.654213270966
1634830867331771548,0.311620800227,0.796709767597,0.0,0.0,0.0,-0.756310118994,0.654213270966
1634830867351362708,0.311620800227,0.796709767597,0.0,0.0,0.0,-0.756310118994,0.654213270966
1634830867372504565,0.311620800227,0.796709767597,0.0,0.0,0.0,-0.756310118994,0.654213270966
1634830867392971322,0.311620800227,0.796709767597,0.0,0.0,0.0,-0.756310118994,0.654213270966
1634830867412690916,0.311620800227,0.796709767597,0.0,0.0,0.0,-0.756310118994,0.654213270966
1634830867431509875,0.311620800227,0.796709767597,0.0,0.0,0.0,-0.756310118994,0.654213270966
1634830867451446780,0.311620800227,0.796709767597,0.0,0.0,0.0,-0.756310118994,0.654213270966
1634830867471745800,0.311620800227,0.796709767597,0.0,0.0,0.0,-0.756310118994,0.654213270966
1634830867491476565,0.311620800227,0.796709767597,0.0,0.0,0.0,-0.756310118994,0.654213270966
1634830867511345381,0.311620800227,0.796709767597,0.0,0.0,0.0,-0.756310118994,0.654213270966
1634830867532455156,0.311620800227,0.796709767597,0.0,0.0,0.0,-0.756310118994,0.654213270966
1634830867551525070,0.311620800227,0.796709767597,0.0,0.0,0.0,-0.756310118994,0.654213270966
1634830867573231804,0.311620800227,0.796709767597,0.0,0.0,0.0,-0.756310118994,0.654213270966
1634830867592316426,0.311620800227,0.796709767597,0.0,0.0,0.0,-0.756310118994,0.654213270966
1634830867612562506,0.311620800227,0.796709767597,0.0,0.0,0.0,-0.756310118994,0.654213270966
1634830867632482078,0.311620800227,0.796709767597,0.0,0.0,0.0,-0.756310118994,0.654213270966
1634830867651408891,0.311620800227,0.796709767597,0.0,0.0,0.0,-0.756310118994,0.654213270966
1634830867671406070,0.311620800227,0.796709767597,0.0,0.0,0.0,-0.756310118994,0.654213270966
1634830867692347557,0.311620800227,0.796709767597,0.0,0.0,0.0,-0.756310118994,0.654213270966
1634830867712395622,0.311620800227,0.796709767597,0.0,0.0,0.0,-0.756310118994,0.654213270966
1634830867731250028,0.311620800227,0.796709767597,0.0,0.0,0.0,-0.756310118994,0.654213270966
1634830867752878084,0.311620800227,0.796709767597,0.0,0.0,0.0,-0.756310118994,0.654213270966
1634830867772353316,0.311620800227,0.796709767597,0.0,0.0,0.0,-0.756310118994,0.654213270966
1634830867792208095,0.311620800227,0.796709767597,0.0,0.0,0.0,-0.756310118994,0.654213270966
1634830867812281689,0.311620800227,0.796709767597,0.0,0.0,0.0,-0.756310118994,0.654213270966
1634830867832498473,0.311620800227,0.796709767597,0.0,0.0,0.0,-0.756310118994,0.654213270966
1634830867852391194,0.311620800227,0.796709767597,0.0,0.0,0.0,-0.756310118994,0.654213270966
1634830867872609412,0.311620800227,0.796709767597,0.0,0.0,0.0,-0.756310118994,0.654213270966
1634830867892371676,0.311620800227,0.796709767597,0.0,0.0,0.0,-0.756310118994,0.654213270966
1634830867912394203,0.311620800227,0.796709767597,0.0,0.0,0.0,-0.756310118994,0.654213270966
1634830867932070976,0.311620800227,0.796709767597,0.0,0.0,0.0,-0.756310118994,0.654213270966
1634830867952400935,0.311620800227,0.796709767597,0.0,0.0,0.0,-0.756310118994,0.654213270966
1634830867972794875,0.311620800227,0.796709767597,0.0,0.0,0.0,-0.756310118994,0.654213270966
1634830867993817555,0.311620800227,0.796709767597,0.0,0.0,0.0,-0.756310118994,0.654213270966
1634830868011542874,0.311620800227,0.796709767597,0.0,0.0,0.0,-0.756310118994,0.654213270966
1634830868032527362,0.311620800227,0.796709767597,0.0,0.0,0.0,-0.756310118994,0.654213270966
1634830868051186128,0.311620800227,0.796709767597,0.0,0.0,0.0,-0.756310118994,0.654213270966
1634830868072374752,0.311620800227,0.796709767597,0.0,0.0,0.0,-0.756310118994,0.654213270966
1634830868090999914,0.311620800227,0.796709767597,0.0,0.0,0.0,-0.756310118994,0.654213270966
1634830868112264141,0.311620800227,0.796709767597,0.0,0.0,0.0,-0.756310118994,0.654213270966
1634830868131190112,0.311620800227,0.796709767597,0.0,0.0,0.0,-0.756310118994,0.654213270966
1634830868151192281,0.311620800227,0.796709767597,0.0,0.0,0.0,-0.756310118994,0.654213270966
1634830868171250796,0.311620800227,0.796709767597,0.0,0.0,0.0,-0.756310118994,0.654213270966
1634830868191660426,0.311620800227,0.796709767597,0.0,0.0,0.0,-0.756310118994,0.654213270966
1634830868212239487,0.311620800227,0.796709767597,0.0,0.0,0.0,-0.756310118994,0.654213270966
1634830868231089143,0.311620800227,0.796709767597,0.0,0.0,0.0,-0.756310118994,0.654213270966
1634830868250993747,0.311620800227,0.796709767597,0.0,0.0,0.0,-0.756310118994,0.654213270966
1634830868271338494,0.311620800227,0.796709767597,0.0,0.0,0.0,-0.756310118994,0.654213270966
1634830868290924535,0.311620800227,0.796709767597,0.0,0.0,0.0,-0.756310118994,0.654213270966
1634830868312049559,0.311620800227,0.796709767597,0.0,0.0,0.0,-0.756310118994,0.654213270966
1634830868333314878,0.311620800227,0.796709767597,0.0,0.0,0.0,-0.756310118994,0.654213270966
1634830868352178221,0.311620800227,0.796709767597,0.0,0.0,0.0,-0.756310118994,0.654213270966
1634830868372167315,0.311620800227,0.796709767597,0.0,0.0,0.0,-0.756310118994,0.654213270966
1634830868392157761,0.311620800227,0.796709767597,0.0,0.0,0.0,-0.756310118994,0.654213270966
1634830868412079147,0.311620800227,0.796709767597,0.0,0.0,0.0,-0.756310118994,0.654213270966
1634830868432288458,0.311620800227,0.796709767597,0.0,0.0,0.0,-0.756310118994,0.654213270966
1634830868451128115,0.311620800227,0.796709767597,0.0,0.0,0.0,-0.756310118994,0.654213270966
1634830868471982057,0.311620800227,0.796709767597,0.0,0.0,0.0,-0.756310118994,0.654213270966
1634830868492227766,0.311620800227,0.796709767597,0.0,0.0,0.0,-0.756310118994,0.654213270966
1634830868512365651,0.311620800227,0.796709767597,0.0,0.0,0.0,-0.756310118994,0.654213270966
1634830868532227194,0.311620800227,0.796709767597,0.0,0.0,0.0,-0.756310118994,0.654213270966
1634830868550855301,0.311620800227,0.796709767597,0.0,0.0,0.0,-0.756310118994,0.654213270966
1634830868570999368,0.311620800227,0.796709767597,0.0,0.0,0.0,-0.756310118994,0.654213270966
1634830868591012497,0.311620800227,0.796709767597,0.0,0.0,0.0,-0.756310118994,0.654213270966
1634830868610885431,0.311620800227,0.796709767597,0.0,0.0,0.0,-0.756310118994,0.654213270966
1634830868632003452,0.311620800227,0.796709767597,0.0,0.0,0.0,-0.756310118994,0.654213270966
1634830868652097385,0.311620800227,0.796709767597,0.0,0.0,0.0,-0.756310118994,0.654213270966
1634830868670722736,0.311620800227,0.796709767597,0.0,0.0,0.0,-0.756310118994,0.654213270966
1634830868691265679,0.311620800227,0.796709767597,0.0,0.0,0.0,-0.756310118994,0.654213270966
1634830868711244133,0.311620800227,0.796709767597,0.0,0.0,0.0,-0.756310118994,0.654213270966
1634830868730817729,0.311620800227,0.796709767597,0.0,0.0,0.0,-0.756310118994,0.654213270966
1634830868750896082,0.311620800227,0.796709767597,0.0,0.0,0.0,-0.756310118994,0.654213270966
1634830868772024632,0.311620800227,0.796709767597,0.0,0.0,0.0,-0.756310118994,0.654213270966
1634830868790821259,0.311620800227,0.796709767597,0.0,0.0,0.0,-0.756310118994,0.654213270966
1634830868813241615,0.311620800227,0.796709767597,0.0,0.0,0.0,-0.756310118994,0.654213270966
1634830868831786575,0.311620800227,0.796709767597,0.0,0.0,0.0,-0.756310118994,0.654213270966
1634830868850830681,0.311620800227,0.796709767597,0.0,0.0,0.0,-0.756310118994,0.654213270966
1634830868871977946,0.311620800227,0.796709767597,0.0,0.0,0.0,-0.756310118994,0.654213270966
1634830868891011862,0.311620800227,0.796709767597,0.0,0.0,0.0,-0.756310118994,0.654213270966
1634830868910851914,0.311620800227,0.796709767597,0.0,0.0,0.0,-0.756310118994,0.654213270966
1634830868932819051,0.311620800227,0.796709767597,0.0,0.0,0.0,-0.756310118994,0.654213270966
1634830868953329321,0.311620800227,0.796709767597,0.0,0.0,0.0,-0.756310118994,0.654213270966
1634830868970644153,0.311620800227,0.796709767597,0.0,0.0,0.0,-0.756310118994,0.654213270966
1634830868991647087,0.311620800227,0.796709767597,0.0,0.0,0.0,-0.756310118994,0.654213270966
1634830869011048177,0.311620800227,0.796709767597,0.0,0.0,0.0,-0.756310118994,0.654213270966
1634830869031948476,0.311620800227,0.796709767597,0.0,0.0,0.0,-0.756310118994,0.654213270966
1634830869051742100,0.311620800227,0.796709767597,0.0,0.0,0.0,-0.756310118994,0.654213270966
1634830869070670766,0.311620800227,0.796709767597,0.0,0.0,0.0,-0.756310118994,0.654213270966
1634830869091119500,0.311620800227,0.796709767597,0.0,0.0,0.0,-0.756310118994,0.654213270966
1634830869112012774,0.311620800227,0.796709767597,0.0,0.0,0.0,-0.756310118994,0.654213270966
1634830869130530193,0.311620800227,0.796709767597,0.0,0.0,0.0,-0.756310118994,0.654213270966
1634830869151622244,0.311620800227,0.796709767597,0.0,0.0,0.0,-0.756310118994,0.654213270966
1634830869172021003,0.311620800227,0.796709767597,0.0,0.0,0.0,-0.756310118994,0.654213270966
1634830869190678917,0.311620800227,0.796709767597,0.0,0.0,0.0,-0.756310118994,0.654213270966
1634830869210564626,0.311620800227,0.796709767597,0.0,0.0,0.0,-0.756310118994,0.654213270966
1634830869231801581,0.311620800227,0.796709767597,0.0,0.0,0.0,-0.756310118994,0.654213270966
1634830869252020249,0.311620800227,0.796709767597,0.0,0.0,0.0,-0.756310118994,0.654213270966
1634830869270890556,0.311620800227,0.796709767597,0.0,0.0,0.0,-0.756310118994,0.654213270966
1634830869291001610,0.311620800227,0.796709767597,0.0,0.0,0.0,-0.756310118994,0.654213270966
1634830869312742419,0.311620800227,0.796709767597,0.0,0.0,0.0,-0.756310118994,0.654213270966
1634830869344820935,0.311620800227,0.796709767597,0.0,0.0,0.0,-0.756310118994,0.654213270966
1634830869355566233,0.311620800227,0.796709767597,0.0,0.0,0.0,-0.756310118994,0.654213270966
1634830869371570655,0.311620800227,0.796709767597,0.0,0.0,0.0,-0.756310118994,0.654213270966
1634830869391580048,0.311620800227,0.796709767597,0.0,0.0,0.0,-0.756310118994,0.654213270966
1634830869410482063,0.311620800227,0.796709767597,0.0,0.0,0.0,-0.756310118994,0.654213270966
1634830869431782890,0.311620800227,0.796709767597,0.0,0.0,0.0,-0.756310118994,0.654213270966
1634830869450875767,0.311620800227,0.796709767597,0.0,0.0,0.0,-0.756310118994,0.654213270966
1634830869471476789,0.311620800227,0.796709767597,0.0,0.0,0.0,-0.756310118994,0.654213270966
1634830869491624734,0.311620800227,0.796709767597,0.0,0.0,0.0,-0.756310118994,0.654213270966
1634830869511777727,0.311620800227,0.796709767597,0.0,0.0,0.0,-0.756310118994,0.654213270966
1634830869531771180,0.311620800227,0.796709767597,0.0,0.0,0.0,-0.756310118994,0.654213270966
1634830869550461555,0.311620800227,0.796709767597,0.0,0.0,0.0,-0.756310118994,0.654213270966
1634830869571854586,0.311620800227,0.796709767597,0.0,0.0,0.0,-0.756310118994,0.654213270966
1634830869590387865,0.311620800227,0.796709767597,0.0,0.0,0.0,-0.756310118994,0.654213270966
1634830869611380878,0.311620800227,0.796709767597,0.0,0.0,0.0,-0.756310118994,0.654213270966
1634830869632129810,0.311620800227,0.796709767597,0.0,0.0,0.0,-0.756310118994,0.654213270966
1634830869650571156,0.311620800227,0.796709767597,0.0,0.0,0.0,-0.756310118994,0.654213270966
1634830869671792781,0.311620800227,0.796709767597,0.0,0.0,0.0,-0.756310118994,0.654213270966
1634830869698831908,0.311620800227,0.796709767597,0.0,0.0,0.0,-0.756310118994,0.654213270966
1634830869712050157,0.311620800227,0.796709767597,0.0,0.0,0.0,-0.756310118994,0.654213270966
1634830869730369309,0.311620800227,0.796709767597,0.0,0.0,0.0,-0.756310118994,0.654213270966
1634830869750423887,0.311620800227,0.796709767597,0.0,0.0,0.0,-0.756310118994,0.654213270966
1634830869772160088,0.311620800227,0.796709767597,0.0,0.0,0.0,-0.756310118994,0.654213270966
1634830869791362834,0.311620800227,0.796709767597,0.0,0.0,0.0,-0.756310118994,0.654213270966
1634830869810634609,0.311620800227,0.796709767597,0.0,0.0,0.0,-0.756310118994,0.654213270966
1634830869830175725,0.311620800227,0.796709767597,0.0,0.0,0.0,-0.756310118994,0.654213270966
1634830869850247496,0.311620800227,0.796709767597,0.0,0.0,0.0,-0.756310118994,0.654213270966
1634830869871280324,0.311620800227,0.796709767597,0.0,0.0,0.0,-0.756310118994,0.654213270966
1634830869891229352,0.311620800227,0.796709767597,0.0,0.0,0.0,-0.756310118994,0.654213270966
1634830869911401683,0.311620800227,0.796709767597,0.0,0.0,0.0,-0.756310118994,0.654213270966
1634830869931757110,0.311620800227,0.796709767597,0.0,0.0,0.0,-0.756310118994,0.654213270966
1634830869950138411,0.311620800227,0.796709767597,0.0,0.0,0.0,-0.756310118994,0.654213270966
1634830869972389897,0.311620800227,0.796709767597,0.0,0.0,0.0,-0.756310118994,0.654213270966
1634830869990646652,0.311620800227,0.796709767597,0.0,0.0,0.0,-0.756310118994,0.654213270966
1634830870011211657,0.311620800227,0.796709767597,0.0,0.0,0.0,-0.756310118994,0.654213270966
1634830870030038149,0.311620800227,0.796709767597,0.0,0.0,0.0,-0.756310118994,0.654213270966
1634830870050178017,0.311620800227,0.796709767597,0.0,0.0,0.0,-0.756310118994,0.654213270966
1634830870070344838,0.311620800227,0.796709767597,0.0,0.0,0.0,-0.756310118994,0.654213270966
1634830870091496492,0.311620800227,0.796709767597,0.0,0.0,0.0,-0.756310118994,0.654213270966
1634830870111272051,0.311620800227,0.796709767597,0.0,0.0,0.0,-0.756310118994,0.654213270966
1634830870130070682,0.311620800227,0.796709767597,0.0,0.0,0.0,-0.756310118994,0.654213270966
1634830870151265047,0.311620800227,0.796709767597,0.0,0.0,0.0,-0.756310118994,0.654213270966
1634830870171266033,0.311620800227,0.796709767597,0.0,0.0,0.0,-0.756310118994,0.654213270966
1634830870191064937,0.311620800227,0.796709767597,0.0,0.0,0.0,-0.756310118994,0.654213270966
1634830870210435810,0.311620800227,0.796709767597,0.0,0.0,0.0,-0.756310118994,0.654213270966
1634830870230047801,0.311620800227,0.796709767597,0.0,0.0,0.0,-0.756310118994,0.654213270966
1634830870250556530,0.311620800227,0.796709767597,0.0,0.0,0.0,-0.756310118994,0.654213270966
1634830870270253029,0.311620800227,0.796709767597,0.0,0.0,0.0,-0.756310118994,0.654213270966
1634830870290095504,0.311620800227,0.796709767597,0.0,0.0,0.0,-0.756310118994,0.654213270966
1634830870310755357,0.311620800227,0.796709767597,0.0,0.0,0.0,-0.756310118994,0.654213270966
1634830870331066330,0.311620800227,0.796709767597,0.0,0.0,0.0,-0.756310118994,0.654213270966
1634830870351338280,0.311620800227,0.796709767597,0.0,0.0,0.0,-0.756310118994,0.654213270966
1634830870371112177,0.311620800227,0.796709767597,0.0,0.0,0.0,-0.756310118994,0.654213270966
1634830870391063618,0.311620800227,0.796709767597,0.0,0.0,0.0,-0.756310118994,0.654213270966
1634830870411268420,0.311620800227,0.796709767597,0.0,0.0,0.0,-0.756310118994,0.654213270966
1634830870429940652,0.311620800227,0.796709767597,0.0,0.0,0.0,-0.756310118994,0.654213270966
1634830870451967312,0.311620800227,0.796709767597,0.0,0.0,0.0,-0.756310118994,0.654213270966
1634830870470037694,0.311620800227,0.796709767597,0.0,0.0,0.0,-0.756310118994,0.654213270966
1634830870490050484,0.311620800227,0.796709767597,0.0,0.0,0.0,-0.756310118994,0.654213270966
1634830870510159764,0.311620800227,0.796709767597,0.0,0.0,0.0,-0.756310118994,0.654213270966
1634830870530528327,0.311620800227,0.796709767597,0.0,0.0,0.0,-0.756310118994,0.654213270966
1634830870549760797,0.311620800227,0.796709767597,0.0,0.0,0.0,-0.756310118994,0.654213270966
1634830870570629195,0.311620800227,0.796709767597,0.0,0.0,0.0,-0.756310118994,0.654213270966
1634830870591207355,0.311620800227,0.796709767597,0.0,0.0,0.0,-0.756310118994,0.654213270966
1634830870610977203,0.311620800227,0.796709767597,0.0,0.0,0.0,-0.756310118994,0.654213270966
1634830870630903257,0.311620800227,0.796709767597,0.0,0.0,0.0,-0.756310118994,0.654213270966
1634830870650873296,0.311620800227,0.796709767597,0.0,0.0,0.0,-0.756310118994,0.654213270966
1634830870673939022,0.311620800227,0.796709767597,0.0,0.0,0.0,-0.756310118994,0.654213270966
1634830870690750000,0.311620800227,0.796709767597,0.0,0.0,0.0,-0.756310118994,0.654213270966
1634830870709937667,0.311620800227,0.796709767597,0.0,0.0,0.0,-0.756310118994,0.654213270966
1634830870729887326,0.311620800227,0.796709767597,0.0,0.0,0.0,-0.756310118994,0.654213270966
1634830870751648606,0.311620800227,0.796709767597,0.0,0.0,0.0,-0.756310118994,0.654213270966
1634830870769962337,0.311620800227,0.796709767597,0.0,0.0,0.0,-0.756310118994,0.654213270966
1634830870790829293,0.311620800227,0.796709767597,0.0,0.0,0.0,-0.756310118994,0.654213270966
1634830870810341072,0.311620800227,0.796709767597,0.0,0.0,0.0,-0.756310118994,0.654213270966
1634830870829820582,0.311620800227,0.796709767597,0.0,0.0,0.0,-0.756310118994,0.654213270966
1634830870851857572,0.311620800227,0.796709767597,0.0,0.0,0.0,-0.756310118994,0.654213270966
1634830870870946882,0.311620800227,0.796709767597,0.0,0.0,0.0,-0.756310118994,0.654213270966
1634830870891045644,0.311620800227,0.796709767597,0.0,0.0,0.0,-0.756310118994,0.654213270966
1634830870910374437,0.311620800227,0.796709767597,0.0,0.0,0.0,-0.756310118994,0.654213270966
1634830870930871162,0.311620800227,0.796709767597,0.0,0.0,0.0,-0.756310118994,0.654213270966
1634830870949814426,0.311620800227,0.796709767597,0.0,0.0,0.0,-0.756310118994,0.654213270966
1634830870969815493,0.311620800227,0.796709767597,0.0,0.0,0.0,-0.756310118994,0.654213270966
1634830870990529029,0.311620800227,0.796709767597,0.0,0.0,0.0,-0.756310118994,0.654213270966
1634830871009822284,0.311620800227,0.796709767597,0.0,0.0,0.0,-0.756310118994,0.654213270966
1634830871029731867,0.311620800227,0.796709767597,0.0,0.0,0.0,-0.756310118994,0.654213270966
1634830871051647358,0.311620800227,0.796709767597,0.0,0.0,0.0,-0.756310118994,0.654213270966
1634830871070714056,0.311620800227,0.796709767597,0.0,0.0,0.0,-0.756310118994,0.654213270966
1634830871089682417,0.311620800227,0.796709767597,0.0,0.0,0.0,-0.756310118994,0.654213270966
1634830871111241322,0.311620800227,0.796709767597,0.0,0.0,0.0,-0.756310118994,0.654213270966
1634830871129624597,0.311620800227,0.796709767597,0.0,0.0,0.0,-0.756310118994,0.654213270966
1634830871151733933,0.311620800227,0.796709767597,0.0,0.0,0.0,-0.756310118994,0.654213270966
1634830871171018504,0.311620800227,0.796709767597,0.0,0.0,0.0,-0.756310118994,0.654213270966
1634830871190538890,0.311620800227,0.796709767597,0.0,0.0,0.0,-0.756310118994,0.654213270966
1634830871210925557,0.311620800227,0.796709767597,0.0,0.0,0.0,-0.756310118994,0.654213270966
1634830871229569694,0.311620800227,0.796709767597,0.0,0.0,0.0,-0.756310118994,0.654213270966
1634830871251148066,0.311620800227,0.796709767597,0.0,0.0,0.0,-0.756310118994,0.654213270966
1634830871271307933,0.311620800227,0.796709767597,0.0,0.0,0.0,-0.756310118994,0.654213270966
1634830871290193378,0.311620800227,0.796709767597,0.0,0.0,0.0,-0.756310118994,0.654213270966
1634830871309735165,0.311620800227,0.796709767597,0.0,0.0,0.0,-0.756310118994,0.654213270966
1634830871330914301,0.311620800227,0.796709767597,0.0,0.0,0.0,-0.756310118994,0.654213270966
1634830871349678617,0.311620800227,0.796709767597,0.0,0.0,0.0,-0.756310118994,0.654213270966
1634830871373444860,0.311620800227,0.796709767597,0.0,0.0,0.0,-0.756310118994,0.654213270966
1634830871389349784,0.311620800227,0.796709767597,0.0,0.0,0.0,-0.756310118994,0.654213270966
1634830871410793149,0.311620800227,0.796709767597,0.0,0.0,0.0,-0.756310118994,0.654213270966
1634830871435362522,0.311620800227,0.796709767597,0.0,0.0,0.0,-0.756310118994,0.654213270966
1634830871449299070,0.311620800227,0.796709767597,0.0,0.0,0.0,-0.756310118994,0.654213270966
1634830871470959828,0.311620800227,0.796709767597,0.0,0.0,0.0,-0.756310118994,0.654213270966
1634830871489473619,0.311620800227,0.796709767597,0.0,0.0,0.0,-0.756310118994,0.654213270966
1634830871509416087,0.311620800227,0.796709767597,0.0,0.0,0.0,-0.756310118994,0.654213270966
1634830871530583239,0.311620800227,0.796709767597,0.0,0.0,0.0,-0.756310118994,0.654213270966
1634830871549513378,0.311620800227,0.796709767597,0.0,0.0,0.0,-0.756310118994,0.654213270966
1634830871570400882,0.311620800227,0.796709767597,0.0,0.0,0.0,-0.756310118994,0.654213270966
1634830871589419098,0.311620800227,0.796709767597,0.0,0.0,0.0,-0.756310118994,0.654213270966
1634830871609566232,0.311620800227,0.796709767597,0.0,0.0,0.0,-0.756310118994,0.654213270966
1634830871630376639,0.311620800227,0.796709767597,0.0,0.0,0.0,-0.756310118994,0.654213270966
1634830871649805042,0.311620800227,0.796709767597,0.0,0.0,0.0,-0.756310118994,0.654213270966
1634830871670717303,0.311620800227,0.796709767597,0.0,0.0,0.0,-0.756310118994,0.654213270966
1634830871689501416,0.311620800227,0.796709767597,0.0,0.0,0.0,-0.756310118994,0.654213270966
1634830871709754519,0.311620800227,0.796709767597,0.0,0.0,0.0,-0.756310118994,0.654213270966
1634830871729163174,0.311620800227,0.796709767597,0.0,0.0,0.0,-0.756310118994,0.654213270966
1634830871750583407,0.311620800227,0.796709767597,0.0,0.0,0.0,-0.756310118994,0.654213270966
1634830871769396485,0.311620800227,0.796709767597,0.0,0.0,0.0,-0.756310118994,0.654213270966
1634830871789236385,0.311620800227,0.796709767597,0.0,0.0,0.0,-0.756310118994,0.654213270966
1634830871810344749,0.311620800227,0.796709767597,0.0,0.0,0.0,-0.756310118994,0.654213270966
1634830871830459880,0.311620800227,0.796709767597,0.0,0.0,0.0,-0.756310118994,0.654213270966
1634830871850362191,0.311620800227,0.796709767597,0.0,0.0,0.0,-0.756310118994,0.654213270966
1634830871870397331,0.311620800227,0.796709767597,0.0,0.0,0.0,-0.756310118994,0.654213270966
1634830871889252318,0.311620800227,0.796709767597,0.0,0.0,0.0,-0.756310118994,0.654213270966
1634830871910385849,0.311620800227,0.796709767597,0.0,0.0,0.0,-0.756310118994,0.654213270966
1634830871929260543,0.311620800227,0.796709767597,0.0,0.0,0.0,-0.756310118994,0.654213270966
1634830871950419800,0.311620800227,0.796709767597,0.0,0.0,0.0,-0.756310118994,0.654213270966
1634830871970172588,0.311620800227,0.796709767597,0.0,0.0,0.0,-0.756310118994,0.654213270966
1634830871989335066,0.311620800227,0.796709767597,0.0,0.0,0.0,-0.756310118994,0.654213270966
1634830872009227788,0.311620800227,0.796709767597,0.0,0.0,0.0,-0.756310118994,0.654213270966
1634830872030582366,0.311620800227,0.796709767597,0.0,0.0,0.0,-0.756310118994,0.654213270966
1634830872049235220,0.311620800227,0.796709767597,0.0,0.0,0.0,-0.756310118994,0.654213270966
1634830872069175231,0.311620800227,0.796709767597,0.0,0.0,0.0,-0.756310118994,0.654213270966
1634830872090427425,0.311620800227,0.796709767597,0.0,0.0,0.0,-0.756310118994,0.654213270966
1634830872110514464,0.311620800227,0.796709767597,0.0,0.0,0.0,-0.756310118994,0.654213270966
1634830872130130653,0.311620800227,0.796709767597,0.0,0.0,0.0,-0.756310118994,0.654213270966
1634830872150118013,0.311620800227,0.796709767597,0.0,0.0,0.0,-0.756310118994,0.654213270966
1634830872169036260,0.311620800227,0.796709767597,0.0,0.0,0.0,-0.756310118994,0.654213270966
1634830872192243345,0.311620800227,0.796709767597,0.0,0.0,0.0,-0.756310118994,0.654213270966
1634830872209476171,0.311620800227,0.796709767597,0.0,0.0,0.0,-0.756310118994,0.654213270966
1634830872229666987,0.311620800227,0.796709767597,0.0,0.0,0.0,-0.756310118994,0.654213270966
1634830872249459378,0.311620800227,0.796709767597,0.0,0.0,0.0,-0.756310118994,0.654213270966
1634830872270256962,0.311620800227,0.796709767597,0.0,0.0,0.0,-0.756310118994,0.654213270966
1634830872288872556,0.311620800227,0.796709767597,0.0,0.0,0.0,-0.756310118994,0.654213270966
1634830872310157823,0.311620800227,0.796709767597,0.0,0.0,0.0,-0.756310118994,0.654213270966
1634830872332080146,0.311620800227,0.796709767597,0.0,0.0,0.0,-0.756310118994,0.654213270966
1634830872349053001,0.311620800227,0.796709767597,0.0,0.0,0.0,-0.756310118994,0.654213270966
1634830872370322779,0.311620800227,0.796709767597,0.0,0.0,0.0,-0.756310118994,0.654213270966
1634830872390004871,0.311620800227,0.796709767597,0.0,0.0,0.0,-0.756310118994,0.654213270966
1634830872410202500,0.311620800227,0.796709767597,0.0,0.0,0.0,-0.756310118994,0.654213270966
1634830872430124636,0.311620800227,0.796709767597,0.0,0.0,0.0,-0.756310118994,0.654213270966
1634830872449924131,0.311620800227,0.796709767597,0.0,0.0,0.0,-0.756310118994,0.654213270966
1634830872470336847,0.311620800227,0.796709767597,0.0,0.0,0.0,-0.756310118994,0.654213270966
1634830872488880795,0.311620800227,0.796709767597,0.0,0.0,0.0,-0.756310118994,0.654213270966
1634830872510212029,0.311620800227,0.796709767597,0.0,0.0,0.0,-0.756310118994,0.654213270966
1634830872529941602,0.311620800227,0.796709767597,0.0,0.0,0.0,-0.756310118994,0.654213270966
1634830872549360767,0.311620800227,0.796709767597,0.0,0.0,0.0,-0.756310118994,0.654213270966
1634830872569908218,0.311620800227,0.796709767597,0.0,0.0,0.0,-0.756310118994,0.654213270966
1634830872588916304,0.311620800227,0.796709767597,0.0,0.0,0.0,-0.756310118994,0.654213270966
1634830872608856446,0.311620800227,0.796709767597,0.0,0.0,0.0,-0.756310118994,0.654213270966
1634830872629957294,0.311620800227,0.796709767597,0.0,0.0,0.0,-0.756310118994,0.654213270966
1634830872648747669,0.311620800227,0.796709767597,0.0,0.0,0.0,-0.756310118994,0.654213270966
1634830872670000665,0.311620800227,0.796709767597,0.0,0.0,0.0,-0.756310118994,0.654213270966
1634830872688813031,0.311620800227,0.796709767597,0.0,0.0,0.0,-0.756310118994,0.654213270966
1634830872709769375,0.311620800227,0.796709767597,0.0,0.0,0.0,-0.756310118994,0.654213270966
1634830872730248276,0.311620800227,0.796709767597,0.0,0.0,0.0,-0.756310118994,0.654213270966
1634830872750724893,0.311620800227,0.796709767597,0.0,0.0,0.0,-0.756310118994,0.654213270966
1634830872768980044,0.311620800227,0.796709767597,0.0,0.0,0.0,-0.756310118994,0.654213270966
1634830872788961914,0.311620800227,0.796709767597,0.0,0.0,0.0,-0.756310118994,0.654213270966
1634830872809862012,0.311620800227,0.796709767597,0.0,0.0,0.0,-0.756310118994,0.654213270966
1634830872829452001,0.311620800227,0.796709767597,0.0,0.0,0.0,-0.756310118994,0.654213270966
1634830872849315617,0.311620800227,0.796709767597,0.0,0.0,0.0,-0.756310118994,0.654213270966
1634830872869885850,0.311620800227,0.796709767597,0.0,0.0,0.0,-0.756310118994,0.654213270966
1634830872889629359,0.311620800227,0.796709767597,0.0,0.0,0.0,-0.756310118994,0.654213270966
1634830872909863928,0.311620800227,0.796709767597,0.0,0.0,0.0,-0.756310118994,0.654213270966
1634830872928618305,0.311620800227,0.796709767597,0.0,0.0,0.0,-0.756310118994,0.654213270966
1634830872948860718,0.311620800227,0.796709767597,0.0,0.0,0.0,-0.756310118994,0.654213270966
1634830872968952035,0.311620800227,0.796709767597,0.0,0.0,0.0,-0.756310118994,0.654213270966
1634830872989674928,0.311620800227,0.796709767597,0.0,0.0,0.0,-0.756310118994,0.654213270966
1634830873011055816,0.311620800227,0.796709767597,0.0,0.0,0.0,-0.756310118994,0.654213270966
1634830873030020150,0.311620800227,0.796709767597,0.0,0.0,0.0,-0.756310118994,0.654213270966
1634830873048935642,0.311620800227,0.796709767597,0.0,0.0,0.0,-0.756310118994,0.654213270966
1634830873069278295,0.311620800227,0.796709767597,0.0,0.0,0.0,-0.756310118994,0.654213270966
1634830873088574517,0.311620800227,0.796709767597,0.0,0.0,0.0,-0.756310118994,0.654213270966
1634830873109916671,0.311620800227,0.796709767597,0.0,0.0,0.0,-0.756310118994,0.654213270966
1634830873129812168,0.311620800227,0.796709767597,0.0,0.0,0.0,-0.756310118994,0.654213270966
1634830873151682853,0.311620800227,0.796709767597,0.0,0.0,0.0,-0.756310118994,0.654213270966
1634830873169312451,0.311620800227,0.796709767597,0.0,0.0,0.0,-0.756310118994,0.654213270966
1634830873188926134,0.311620800227,0.796709767597,0.0,0.0,0.0,-0.756310118994,0.654213270966
1634830873208492978,0.311620800227,0.796709767597,0.0,0.0,0.0,-0.756310118994,0.654213270966
1634830873229598195,0.311620800227,0.796709767597,0.0,0.0,0.0,-0.756310118994,0.654213270966
1634830873249113943,0.311620800227,0.796709767597,0.0,0.0,0.0,-0.756310118994,0.654213270966
1634830873268937533,0.311620800227,0.796709767597,0.0,0.0,0.0,-0.756310118994,0.654213270966
1634830873290098845,0.311620800227,0.796709767597,0.0,0.0,0.0,-0.756310118994,0.654213270966
1634830873308536192,0.311620800227,0.796709767597,0.0,0.0,0.0,-0.756310118994,0.654213270966
1634830873328563899,0.311620800227,0.796709767597,0.0,0.0,0.0,-0.756310118994,0.654213270966
1634830873349655469,0.311620800227,0.796709767597,0.0,0.0,0.0,-0.756310118994,0.654213270966
1634830873368579938,0.311620800227,0.796709767597,0.0,0.0,0.0,-0.756310118994,0.654213270966
1634830873389452163,0.311620800227,0.796709767597,0.0,0.0,0.0,-0.756310118994,0.654213270966
1634830873409420407,0.311620800227,0.796709767597,0.0,0.0,0.0,-0.756310118994,0.654213270966
1634830873429433377,0.311620800227,0.796709767597,0.0,0.0,0.0,-0.756310118994,0.654213270966
1634830873449791469,0.311620800227,0.796709767597,0.0,0.0,0.0,-0.756310118994,0.654213270966
1634830873468523403,0.311620800227,0.796709767597,0.0,0.0,0.0,-0.756310118994,0.654213270966
1634830873489077547,0.311620800227,0.796709767597,0.0,0.0,0.0,-0.756310118994,0.654213270966
1634830873509752197,0.311620800227,0.796709767597,0.0,0.0,0.0,-0.756310118994,0.654213270966
1634830873529399765,0.311620800227,0.796709767597,0.0,0.0,0.0,-0.756310118994,0.654213270966
1634830873549833360,0.311619837907,0.796703154015,0.0,0.0,0.0,-0.756299274646,0.654225807478
1634830873569634328,0.311611927785,0.796648791536,0.0,0.0,0.0,-0.756275525919,0.654253260516
1634830873588462604,0.311582401229,0.79644562264,0.0,0.0,0.0,-0.756217386909,0.654320459513
1634830873609547572,0.311538130967,0.796140608823,0.0,0.0,0.0,-0.75616385111,0.654382327294
1634830873628539919,0.311471033142,0.795678304981,0.0,0.0,0.0,-0.756222290013,0.654314792808
1634830873648341187,0.311390642977,0.795124649447,0.0,0.0,0.0,-0.756182563897,0.654360703327
1634830873668647992,0.311268298564,0.794282244077,0.0,0.0,0.0,-0.756207268519,0.65433215345
1634830873688636705,0.311087771978,0.79303779976,0.0,0.0,0.0,-0.75609801712,0.654458393259
1634830873708317295,0.310822825997,0.791200495946,0.0,0.0,0.0,-0.755709713078,0.654906733481
1634830873729619624,0.310419726353,0.788380087921,0.0,0.0,0.0,-0.755286489715,0.655394780612
1634830873749698198,0.309908190011,0.784780063569,0.0,0.0,0.0,-0.755259402442,0.655425995078
1634830873768616304,0.309385919169,0.781135989562,0.0,0.0,0.0,-0.755963059462,0.654614277822
1634830873788749410,0.308815767004,0.777183631278,0.0,0.0,0.0,-0.75575424997,0.654855337959
1634830873809384407,0.308138632379,0.77244747319,0.0,0.0,0.0,-0.755186007493,0.65551055986
1634830873830733254,0.307469102122,0.767737308478,0.0,0.0,0.0,-0.755262992438,0.655421858235
1634830873848299902,0.306768607564,0.762799184428,0.0,0.0,0.0,-0.754798655949,0.655956545037
1634830873869471244,0.306025500218,0.757479952167,0.0,0.0,0.0,-0.754189602096,0.656656717083
1634830873889150330,0.305256931711,0.751914968823,0.0,0.0,0.0,-0.753527199621,0.657416731937
1634830873909290791,0.304493679806,0.746265913576,0.0,0.0,0.0,-0.752555699047,0.658528602137
1634830873932960491,0.303711354006,0.740370557196,0.0,0.0,0.0,-0.751830680264,0.659356222549
1634830873949271915,0.302953785825,0.734531142465,0.0,0.0,0.0,-0.750773472551,0.660559757262
1634830873970589091,0.302222423813,0.728814587484,0.0,0.0,0.0,-0.750520429026,0.660847248322
1634830873988167332,0.301444381437,0.722654897702,0.0,0.0,0.0,-0.749996621221,0.661441658922
1634830874008317641,0.300733912725,0.717037774586,0.0,0.0,0.0,-0.750451459146,0.660925568779
1634830874029403160,0.299960831584,0.710956000853,0.0,0.0,0.0,-0.750346209504,0.661045055865
1634830874049154935,0.299246381928,0.705353305677,0.0,0.0,0.0,-0.750836172492,0.660488487468
1634830874069676536,0.298519016324,0.699688157154,0.0,0.0,0.0,-0.750704076083,0.660638622964
1634830874089208975,0.297850089063,0.694475171606,0.0,0.0,0.0,-0.7509885287,0.660315250286
1634830874109177991,0.297171877066,0.689219186914,0.0,0.0,0.0,-0.751124717122,0.660160328502
1634830874128038859,0.296503149914,0.684040867939,0.0,0.0,0.0,-0.750988157845,0.660315672066
1634830874148342769,0.295908082006,0.679440772556,0.0,0.0,0.0,-0.751254954727,0.660012115797
1634830874169173045,0.295286176252,0.674671161604,0.0,0.0,0.0,-0.75162454127,0.659591198365
1634830874188973652,0.294700177145,0.670206814226,0.0,0.0,0.0,-0.751774981191,0.659419727984
1634830874208390793,0.294137016697,0.665961537377,0.0,0.0,0.0,-0.752517555768,0.658572189104
1634830874229466293,0.293544032884,0.661558256113,0.0,0.0,0.0,-0.752970607686,0.658054149718
1634830874249162572,0.292970960392,0.657310681547,0.0,0.0,0.0,-0.752755217754,0.658300525705
1634830874268148798,0.292412739247,0.653177334035,0.0,0.0,0.0,-0.75317158727,0.657824110328
1634830874288169732,0.291849430483,0.649035891401,0.0,0.0,0.0,-0.753277263816,0.657703097011
1634830874309277483,0.29130163701,0.644981939224,0.0,0.0,0.0,-0.752732998588,0.65832593207
1634830874327931099,0.290777158787,0.641079464666,0.0,0.0,0.0,-0.752799167135,0.658250266966
1634830874347893061,0.290275665315,0.637372977854,0.0,0.0,0.0,-0.753160683302,0.657836594549
1634830874367906031,0.289725323744,0.633323908918,0.0,0.0,0.0,-0.753160514033,0.657836788347
1634830874388228295,0.289161045511,0.629173296002,0.0,0.0,0.0,-0.753400731172,0.657561661192
1634830874408987156,0.288601782223,0.62510444524,0.0,0.0,0.0,-0.753994828983,0.656880352779
1634830874428027683,0.287997152478,0.620734111724,0.0,0.0,0.0,-0.754018528851,0.656853148085
1634830874449166533,0.28739005586,0.616356199282,0.0,0.0,0.0,-0.75425400741,0.656582738356
1634830874468123353,0.28675045165,0.611785678737,0.0,0.0,0.0,-0.754731256254,0.656034092737
1634830874487874156,0.286070878841,0.606952969607,0.0,0.0,0.0,-0.754686353582,0.656085747229
1634830874508197071,0.28539263479,0.602128570807,0.0,0.0,0.0,-0.754905130285,0.655834006643
1634830874528043165,0.284697903078,0.597233327763,0.0,0.0,0.0,-0.755359094751,0.655311100148
1634830874549510015,0.283980833543,0.592190290957,0.0,0.0,0.0,-0.755224323494,0.655466415008
1634830874569173733,0.283269839123,0.58719479895,0.0,0.0,0.0,-0.755400929074,0.655262875763
1634830874588260469,0.282565591427,0.582266402573,0.0,0.0,0.0,-0.755404168761,0.655259140965
1634830874608995946,0.281846885994,0.577235955084,0.0,0.0,0.0,-0.755453525793,0.655202236234
1634830874628409280,0.281139051791,0.572294215434,0.0,0.0,0.0,-0.755771698779,0.654835200127
1634830874649879286,0.280425719016,0.567320521703,0.0,0.0,0.0,-0.75547746413,0.655174634118
1634830874668999245,0.279728998931,0.562438695793,0.0,0.0,0.0,-0.755614795981,0.655016244146
1634830874687960443,0.279029910787,0.557578619576,0.0,0.0,0.0,-0.755811789343,0.654788927128
1634830874708569830,0.278349075597,0.552838779109,0.0,0.0,0.0,-0.755604797297,0.655027778268
1634830874728890522,0.277661788897,0.548050243177,0.0,0.0,0.0,-0.755766335803,0.654841389702
1634830874751982097,0.276995753694,0.543419189425,0.0,0.0,0.0,-0.755668105566,0.654954742123
1634830874768085918,0.276324896765,0.538736483768,0.0,0.0,0.0,-0.755434513345,0.6552241571
1634830874790179194,0.27568227496,0.534245552031,0.0,0.0,0.0,-0.755604313625,0.655028336205
1634830874811913130,0.275056656375,0.52987362845,0.0,0.0,0.0,-0.755416687888,0.655244708227
1634830874828836562,0.274415304423,0.525368828987,0.0,0.0,0.0,-0.755231491733,0.655458155716
1634830874847635643,0.273793685768,0.521001137558,0.0,0.0,0.0,-0.755302839896,0.65537593795
1634830874868826772,0.27316644198,0.516590114017,0.0,0.0,0.0,-0.755247374128,0.655439855267
1634830874889268683,0.277858534081,0.519907141612,0.0,0.0,0.0,-0.753082743076,0.657925818069
1634830874907967244,0.277279853941,0.515651550125,0.0,0.0,0.0,-0.753397918269,0.657564884059
1634830874927607968,0.276664957788,0.511130689203,0.0,0.0,0.0,-0.753176306171,0.657818707414
1634830874948824305,0.276049875679,0.506586780917,0.0,0.0,0.0,-0.752977194178,0.658046613127
1634830874968291580,0.275435531891,0.50205252673,0.0,0.0,0.0,-0.753114224043,0.657889782215
1634830874987530975,0.274810304507,0.497429676608,0.0,0.0,0.0,-0.752929601185,0.658101067967
1634830875009012935,0.274173959558,0.492709423332,0.0,0.0,0.0,-0.75295477638,0.658072264061
1634830875028614094,0.273557787093,0.488156295002,0.0,0.0,0.0,-0.753112018978,0.657892306438
1634830875050565021,0.272933596736,0.483541391147,0.0,0.0,0.0,-0.752879798783,0.658158042254
1634830875067577591,0.272317997568,0.478978423358,0.0,0.0,0.0,-0.752982478902,0.658040565973
1634830875088600481,0.271703990458,0.474449138631,0.0,0.0,0.0,-0.753123990809,0.657878601618
1634830875107548655,0.271053866251,0.469643745643,0.0,0.0,0.0,-0.752840964431,0.658202462981
1634830875127861000,0.270443769975,0.465112582673,0.0,0.0,0.0,-0.752837991354,0.658205863521
1634830875148639338,0.269805270574,0.460381423825,0.0,0.0,0.0,-0.752905751212,0.658128353585
1634830875167625443,0.269159329334,0.455589294382,0.0,0.0,0.0,-0.752755315252,0.658300414218
1634830875187588588,0.268565142896,0.451190635037,0.0,0.0,0.0,-0.753085399526,0.657922777399
1634830875208642957,0.267933355908,0.446533692193,0.0,0.0,0.0,-0.753180851838,0.657813502768
1634830875228557771,0.267303420766,0.441883321718,0.0,0.0,0.0,-0.753012284373,0.658006458618
1634830875248491280,0.266687294132,0.437338051199,0.0,0.0,0.0,-0.753187407342,0.657805996797
1634830875267621748,0.266074687877,0.432834388277,0.0,0.0,0.0,-0.753241136645,0.657744471711
1634830875288471741,0.265459686416,0.428304793718,0.0,0.0,0.0,-0.753157152284,0.657840637209
1634830875308830534,0.264848234464,0.423809865295,0.0,0.0,0.0,-0.753316604951,0.657658036297
1634830875328531854,0.264178189499,0.41890312733,0.0,0.0,0.0,-0.753463987653,0.657489178094
1634830875348517250,0.263515972856,0.414047861857,0.0,0.0,0.0,-0.753356843923,0.657611941584
1634830875367573168,0.262884816667,0.409442993065,0.0,0.0,0.0,-0.75383784969,0.657060496739
1634830875387631933,0.262262300497,0.404918954303,0.0,0.0,0.0,-0.753672262734,0.657250424409
1634830875408519417,0.261661476182,0.40055024146,0.0,0.0,0.0,-0.753865557125,0.657028706968
1634830875428484436,0.261049465047,0.39613266147,0.0,0.0,0.0,-0.754088918747,0.65677233698
1634830875448419137,0.260408364796,0.391496788342,0.0,0.0,0.0,-0.753897268942,0.6569923195
1634830875468656620,0.259765923291,0.386841151584,0.0,0.0,0.0,-0.7539948586,0.656880318783
1634830875487281030,0.259130535242,0.382264407595,0.0,0.0,0.0,-0.754210474907,0.656632743275
1634830875508328347,0.258502455142,0.377747382798,0.0,0.0,0.0,-0.754183775226,0.656663409355
1634830875527584004,0.257901553258,0.37343234694,0.0,0.0,0.0,-0.754488451796,0.656313321597
1634830875548782115,0.257289262093,0.369065424812,0.0,0.0,0.0,-0.754596072925,0.656189581391
1634830875571199264,0.25663455403,0.364389041203,0.0,0.0,0.0,-0.754487445,0.656314478994
1634830875588483759,0.256013376384,0.359958342276,0.0,0.0,0.0,-0.754706772556,0.656062258828
1634830875609443720,0.255389356543,0.355519788717,0.0,0.0,0.0,-0.75483065762,0.655919719415
1634830875627825421,0.254769367162,0.35111080845,0.0,0.0,0.0,-0.75465080989,0.65612663041
1634830875648903086,0.254161508703,0.346788921891,0.0,0.0,0.0,-0.754896354708,0.655844107733
1634830875667484896,0.25354228707,0.342408872326,0.0,0.0,0.0,-0.754931936434,0.655803149849
1634830875687685099,0.252885488454,0.337754146451,0.0,0.0,0.0,-0.754853535462,0.655893390727
1634830875707469946,0.252212716582,0.332984257433,0.0,0.0,0.0,-0.754971638939,0.655757443265
1634830875727394848,0.251579289361,0.328498414271,0.0,0.0,0.0,-0.754911966889,0.65582613721
1634830875748491569,0.250925529899,0.32385503418,0.0,0.0,0.0,-0.754809514833,0.655944049685
1634830875768422392,0.250319980636,0.319565584546,0.0,0.0,0.0,-0.755043426638,0.655674785157
1634830875788491397,0.249656939511,0.314896526916,0.0,0.0,0.0,-0.755161724332,0.655538534415
1634830875807178686,0.248984655595,0.31016071813,0.0,0.0,0.0,-0.755220745971,0.655470536985
1634830875829277243,0.248322857047,0.305528590538,0.0,0.0,0.0,-0.755623744298,0.655005921387
1634830875847151304,0.247626474349,0.30067451671,0.0,0.0,0.0,-0.755638886272,0.654988452993
1634830875867518383,0.246954107755,0.295978431219,0.0,0.0,0.0,-0.755573625542,0.655063734598
1634830875887170909,0.246330208421,0.291628023543,0.0,0.0,0.0,-0.755629584298,0.654999184223
1634830875908621409,0.245653979735,0.286906131008,0.0,0.0,0.0,-0.755437732951,0.655220445067
1634830875928905541,0.245005227667,0.282373934163,0.0,0.0,0.0,-0.755573452975,0.655063933642
1634830875948275202,0.244352712879,0.277828678122,0.0,0.0,0.0,-0.755761830702,0.654846589099
1634830875967493016,0.2436604087,0.273003805245,0.0,0.0,0.0,-0.755599214323,0.65503421843
1634830875987635821,0.243002835891,0.268420901788,0.0,0.0,0.0,-0.755758408229,0.654850538971
1634830876008146802,0.242350883549,0.26389008316,0.0,0.0,0.0,-0.755787883686,0.654816520006
1634830876027266400,0.247161994321,0.251925066183,0.0,0.0,0.0,-0.75414570525,0.656707130503
1634830876047264972,0.246549685284,0.247520386586,0.0,0.0,0.0,-0.75427616742,0.656557281022
1634830876067871043,0.245879232339,0.242707858716,0.0,0.0,0.0,-0.754300492505,0.656529334461
1634830876087094658,0.245219524596,0.237963643603,0.0,0.0,0.0,-0.754213402584,0.65662938052
1634830876108393521,0.244594909501,0.233479492556,0.0,0.0,0.0,-0.754328580227,0.656497062487
1634830876127328730,0.243957478112,0.228905801404,0.0,0.0,0.0,-0.754400458378,0.656414463887
1634830876146991346,0.243303285025,0.224207502128,0.0,0.0,0.0,-0.754367648519,0.656452169521
1634830876168218874,0.242680036299,0.219752941373,0.0,0.0,0.0,-0.754557041696,0.656234463303
1634830876187118626,0.242033195861,0.215138756723,0.0,0.0,0.0,-0.754478174737,0.656325135771
1634830876207569914,0.241391533097,0.210557494275,0.0,0.0,0.0,-0.754663092817,0.656112502807
1634830876228365233,0.240771949063,0.206160216986,0.0,0.0,0.0,-0.754912943246,0.655825013338
1634830876247084143,0.240127210144,0.201598238605,0.0,0.0,0.0,-0.754934496054,0.655800203315
1634830876268032041,0.239474945875,0.196974222845,0.0,0.0,0.0,-0.754953977003,0.655777776848
1634830876287633402,0.23883311278,0.192445025328,0.0,0.0,0.0,-0.755167303896,0.655532106862
1634830876308245684,0.23816430401,0.187735090105,0.0,0.0,0.0,-0.755189032347,0.655507075036
1634830876327972041,0.237519530334,0.183202101802,0.0,0.0,0.0,-0.755392883319,0.655272150965
1634830876348071994,0.236905556644,0.178914571405,0.0,0.0,0.0,-0.75564265673,0.654984103113
1634830876368679348,0.236239804965,0.174264271978,0.0,0.0,0.0,-0.755533749916,0.655109725724
1634830876391027188,0.235581750862,0.169673506716,0.0,0.0,0.0,-0.755744868154,0.654866165151
1634830876408806679,0.234906438007,0.164981718662,0.0,0.0,0.0,-0.755827186717,0.654771153778
1634830876429347666,0.234210824729,0.160140718877,0.0,0.0,0.0,-0.755619118881,0.655011257293
1634830876448314485,0.233561390244,0.155621777119,0.0,0.0,0.0,-0.755794618455,0.654808746669
1634830876467990346,0.232880366976,0.15090178091,0.0,0.0,0.0,-0.755960250835,0.654617521273
1634830876487976855,0.232195721912,0.146160760143,0.0,0.0,0.0,-0.75601930343,0.654549320404
1634830876507161526,0.231542896913,0.141656103624,0.0,0.0,0.0,-0.756212964263,0.654325570859
1634830876527008882,0.230848128443,0.136873089269,0.0,0.0,0.0,-0.75617629815,0.654367943986
1634830876547970636,0.230144613689,0.132028090989,0.0,0.0,0.0,-0.756282524621,0.65424517037
1634830876567322523,0.229469990504,0.127395649538,0.0,0.0,0.0,-0.756384950021,0.65412675177
1634830876587037077,0.228779539377,0.122659168164,0.0,0.0,0.0,-0.75633713632,0.654182035999
1634830876608641869,0.228108980666,0.118059305741,0.0,0.0,0.0,-0.756467943332,0.654030771991
1634830876627874913,0.227451179045,0.113565845217,0.0,0.0,0.0,-0.756606042925,0.653871008541
1634830876646738836,0.2267588656,0.108847343042,0.0,0.0,0.0,-0.756728375398,0.653729428638
1634830876668392681,0.226098057325,0.10434738781,0.0,0.0,0.0,-0.75681414774,0.653630129187
1634830876687831864,0.225439832164,0.0998779271913,0.0,0.0,0.0,-0.757013844932,0.653398835767
1634830876708167844,0.224735425815,0.0951057519845,0.0,0.0,0.0,-0.756987791889,0.653429019046
1634830876727833575,0.224074804111,0.0906244967601,0.0,0.0,0.0,-0.756856286232,0.653581335406
1634830876747906237,0.223406779271,0.0860911857446,0.0,0.0,0.0,-0.756921915409,0.653505328191
1634830876766699288,0.222728683124,0.0814865645662,0.0,0.0,0.0,-0.756876002567,0.653558502919
1634830876786684314,0.222107157238,0.077271414558,0.0,0.0,0.0,-0.757005348204,0.653408679764
1634830876807703708,0.221450249922,0.0728253498204,0.0,0.0,0.0,-0.756991321065,0.653424930525
1634830876826674353,0.220773735251,0.0682355900254,0.0,0.0,0.0,-0.756897474601,0.653533635662
1634830876847885149,0.22013564725,0.0639107677013,0.0,0.0,0.0,-0.757055818542,0.653350202887
1634830876867807216,0.219443611934,0.0592286353056,0.0,0.0,0.0,-0.756972896542,0.653446274686
1634830876886840551,0.218749416558,0.0545207609974,0.0,0.0,0.0,-0.756863657837,0.653572798888
1634830876908063059,0.218091343535,0.0500576617633,0.0,0.0,0.0,-0.75700076659,0.653413987746
1634830876927825714,0.217391912761,0.0453389069398,0.0,0.0,0.0,-0.757283224033,0.653086608803
1634830876946760693,0.216688923088,0.0406016359396,0.0,0.0,0.0,-0.757215572747,0.653165045291
1634830876967847454,0.216037552323,0.0362205784486,0.0,0.0,0.0,-0.757421408136,0.652926343853
1634830876986752165,0.2153441671,0.0315676478372,0.0,0.0,0.0,-0.757360240478,0.652997294132
1634830877006732232,0.214695549887,0.0272148693336,0.0,0.0,0.0,-0.757427179014,0.652919649337
1634830877027985227,0.214036132082,0.022796825451,0.0,0.0,0.0,-0.757542601828,0.652785727797
1634830877047093975,0.21331269337,0.017946055651,0.0,0.0,0.0,-0.757391167474,0.652961422622
1634830877067721497,0.212629867862,0.0133534029136,0.0,0.0,0.0,-0.757467829285,0.65287248954
1634830877086529155,0.211937721193,0.00871323284419,0.0,0.0,0.0,-0.757437292323,0.652907917089
1634830877109055641,0.211231235438,0.00396804995874,0.0,0.0,0.0,-0.757407382486,0.652942613831
1634830877127971103,0.210578327743,-0.000412523254865,0.0,0.0,0.0,-0.757404303921,0.65294618492
1634830877146496406,0.209901662778,-0.00494391472263,0.0,0.0,0.0,-0.757601249497,0.652717662364
1634830877167866675,0.208904779966,-0.0174806113264,0.0,0.0,0.0,-0.756826004626,0.653616400286
1634830877186755725,0.208232280025,-0.0220492519148,0.0,0.0,0.0,-0.756925220542,0.653501500003
1634830877209481589,0.207545773125,-0.0267032020591,0.0,0.0,0.0,-0.756972878423,0.653446295676
1634830877227956918,0.206835360622,-0.0315235848121,0.0,0.0,0.0,-0.756870869924,0.653564446907
1634830877248282538,0.206187831776,-0.0359099868991,0.0,0.0,0.0,-0.757046140522,0.653361416921
1634830877267852088,0.205537235289,-0.040296039003,0.0,0.0,0.0,-0.757281976596,0.65308805526
1634830877287058100,0.204873175179,-0.0447723285049,0.0,0.0,0.0,-0.757159570892,0.653229962729
1634830877307638573,0.204236632162,-0.0490586830716,0.0,0.0,0.0,-0.757388937185,0.652964009598
1634830877327746020,0.203540175603,-0.0537400848217,0.0,0.0,0.0,-0.757236147351,0.653141192351
1634830877347573668,0.202843082872,-0.0584379541259,0.0,0.0,0.0,-0.757187182516,0.653197956698
1634830877367422616,0.202186155315,-0.0628598301152,0.0,0.0,0.0,-0.757381941214,0.652972124308
1634830877386393123,0.201476480921,-0.067624759321,0.0,0.0,0.0,-0.75735794702,0.652999954124
1634830877406708834,0.200808572583,-0.0721191718556,0.0,0.0,0.0,-0.757248958077,0.653126339609
1634830877426661259,0.200139818553,-0.076616714574,0.0,0.0,0.0,-0.757405707798,0.652944556448
1634830877446321350,0.199432492208,-0.0813745101195,0.0,0.0,0.0,-0.757061746961,0.653343333393
1634830877467525073,0.198770270582,-0.0858508622888,0.0,0.0,0.0,-0.75712977681,0.653264495489
1634830877486352668,0.19808834648,-0.0904431992484,0.0,0.0,0.0,-0.757333479221,0.653028331125
1634830877507470658,0.197366155856,-0.0953028182528,0.0,0.0,0.0,-0.757196668336,0.653186960572
1634830877527688314,0.196714404582,-0.0996920304077,0.0,0.0,0.0,-0.757338424565,0.653022595839
1634830877546338083,0.196057541059,-0.104094213641,0.0,0.0,0.0,-0.757612714443,0.652704354907
1634830877567435355,0.195376533075,-0.108651908014,0.0,0.0,0.0,-0.757455347839,0.652886970332
1634830877586581632,0.194732227137,-0.112971072303,0.0,0.0,0.0,-0.757665161996,0.652643472577
1634830877607598471,0.19402652024,-0.117674505237,0.0,0.0,0.0,-0.75782582325,0.652456911692
1634830877627375445,0.19331935133,-0.12238700581,0.0,0.0,0.0,-0.757708929796,0.652592658331
1634830877647318019,0.192657767566,-0.126795506741,0.0,0.0,0.0,-0.757887247299,0.652385561138
1634830877666835921,0.191959627113,-0.131424107521,0.0,0.0,0.0,-0.757995903836,0.652259311753
1634830877686225911,0.191250166799,-0.136140963694,0.0,0.0,0.0,-0.757729959059,0.652568240987
1634830877706936039,0.190593909051,-0.140511564926,0.0,0.0,0.0,-0.75783773371,0.65244307749
1634830877727400122,0.189889180968,-0.145190340251,0.0,0.0,0.0,-0.757980259554,0.65227749166
1634830877747320807,0.18919043106,-0.149834542841,0.0,0.0,0.0,-0.757787172666,0.652501801486
1634830877767433194,0.188529351909,-0.154224205825,0.0,0.0,0.0,-0.758004544991,0.65224926966
1634830877787302240,0.187812208539,-0.158973632603,0.0,0.0,0.0,-0.758027273701,0.652222854801
1634830877807390632,0.187124304663,-0.163536951921,0.0,0.0,0.0,-0.757925285857,0.652341368502
1634830877827437504,0.186443075267,-0.168049605643,0.0,0.0,0.0,-0.758069911172,0.65217329735
1634830877847296753,0.185730301781,-0.172760786394,0.0,0.0,0.0,-0.758267216194,0.651943884737
1634830877867226484,0.185056496992,-0.177208257969,0.0,0.0,0.0,-0.758247018038,0.651967376205
1634830877887138051,0.184359802651,-0.181789690806,0.0,0.0,0.0,-0.758520112712,0.65164962872
1634830877907388469,0.18363123529,-0.186570373,0.0,0.0,0.0,-0.758372960337,0.651820874957
1634830877930913756,0.182958082148,-0.190996130668,0.0,0.0,0.0,-0.758441723568,0.651740862576
1634830877946107753,0.182261641405,-0.195572851271,0.0,0.0,0.0,-0.758356653007,0.65183984754
1634830877967307519,0.181546269939,-0.200285025964,0.0,0.0,0.0,-0.75827272816,0.651937473787
1634830877986204124,0.180878621992,-0.204692155334,0.0,0.0,0.0,-0.75828278613,0.651925775115
1634830878006419927,0.180193392512,-0.209209164358,0.0,0.0,0.0,-0.758267155086,0.65194395581
1634830878028660533,0.179474641395,-0.213954225919,0.0,0.0,0.0,-0.758081357927,0.652159991692
1634830878046001705,0.178806640481,-0.218370981702,0.0,0.0,0.0,-0.758208916716,0.652011685947
1634830878067181622,0.178099899429,-0.223037065197,0.0,0.0,0.0,-0.758188702591,0.652035191736
1634830878086175292,0.177381322348,-0.227803743365,0.0,0.0,0.0,-0.757963365497,0.652297122916
1634830878107481659,0.176748882209,-0.232002112159,0.0,0.0,0.0,-0.757910587997,0.652358444877
1634830878130927385,0.176106548232,-0.236276312173,0.0,0.0,0.0,-0.757627085967,0.652687673095
1634830878147388071,0.17552254024,-0.240203411792,0.0,0.0,0.0,-0.757104931445,0.653293290018
1634830878166116708,0.175028374216,-0.243560007681,0.0,0.0,0.0,-0.756661687832,0.653806615267
1634830878186194810,0.17453506829,-0.246941356209,0.0,0.0,0.0,-0.756219438741,0.654318088143
1634830878206138177,0.174050905466,-0.250308535258,0.0,0.0,0.0,-0.755240914265,0.655447298735
1634830878227067010,0.173682751034,-0.252911224306,0.0,0.0,0.0,-0.754600267141,0.656184758152
1634830878246016856,0.173432956023,-0.254707387276,0.0,0.0,0.0,-0.753548246804,0.657392607
1634830878267256627,0.173228903568,-0.256230176173,0.0,0.0,0.0,-0.751472191586,0.659764765104
1634830878286513615,0.175198773709,-0.279024776767,0.0,0.0,0.0,-0.747298901213,0.664488037699
1634830878306030896,0.175057667828,-0.280255989632,0.0,0.0,0.0,-0.745030026746,0.667030928254
1634830878326963085,0.174987645873,-0.28090020079,0.0,0.0,0.0,-0.742844966637,0.669463483353
1634830878346399272,0.174953400937,-0.28123455857,0.0,0.0,0.0,-0.740530916383,0.672022292697
1634830878366103046,0.174948639598,-0.281280784901,0.0,0.0,0.0,-0.73796810566,0.67483559111
1634830878387175630,0.174945229252,-0.281323379467,0.0,0.0,0.0,-0.734370796416,0.678748505245
1634830878407066347,0.174955046133,-0.281181555785,0.0,0.0,0.0,-0.73033988519,0.683083927568
1634830878427056012,0.174985759694,-0.280667411092,0.0,0.0,0.0,-0.726641111074,0.68701724556
1634830878446945879,0.175018631881,-0.280026543698,0.0,0.0,0.0,-0.723236002649,0.690600958928
1634830878466933549,0.175042882129,-0.279434764658,0.0,0.0,0.0,-0.719530332362,0.694461014609
1634830878485964679,0.175061171182,-0.27881464913,0.0,0.0,0.0,-0.71528080975,0.698837150703
1634830878507053003,0.175071217929,-0.27820802814,0.0,0.0,0.0,-0.710507802136,0.703689322857
1634830878526861736,0.175072947529,-0.277809773927,0.0,0.0,0.0,-0.705253539095,0.708955178833
1634830878547607663,0.175072166695,-0.277697313773,0.0,0.0,0.0,-0.700024219021,0.714119102661
1634830878570228076,0.175071150987,-0.277661624162,0.0,0.0,0.0,-0.694408292696,0.719581213648
1634830878592207037,0.175062364325,-0.277471020128,0.0,0.0,0.0,-0.689051446354,0.724712428676
1634830878621480523,0.175060964378,-0.277435333042,0.0,0.0,0.0,-0.683362834008,0.730078925252
1634830878627000170,0.175072488215,-0.277583365717,0.0,0.0,0.0,-0.677613777011,0.735417955455
1634830878646980437,0.17509657154,-0.277849048622,0.0,0.0,0.0,-0.671734471739,0.740792008243
1634830878667979602,0.175101752282,-0.277903718227,0.0,0.0,0.0,-0.666277105147,0.745704243757
1634830878686725723,0.175071226896,-0.277654038293,0.0,0.0,0.0,-0.661019164018,0.750369019084
1634830878706864570,0.175066756819,-0.277613279736,0.0,0.0,0.0,-0.655693649264,0.755027044757
1634830878726749396,0.175124241019,-0.27798720942,0.0,0.0,0.0,-0.649817730101,0.760090072061
1634830878745896316,0.175147736531,-0.278136184389,0.0,0.0,0.0,-0.644512621882,0.76459367002
1634830878765621611,0.179282978394,-0.287186151984,0.0,0.0,0.0,-0.63972612733,0.768602941714
1634830878785622838,0.179253021207,-0.287026921319,0.0,0.0,0.0,-0.634992667402,0.772518163117
1634830878806081751,0.179265887231,-0.287087082242,0.0,0.0,0.0,-0.629753333643,0.776795171693
1634830878826744048,0.179324527347,-0.287353018812,0.0,0.0,0.0,-0.624314747819,0.781172897415
1634830878848238461,0.179332723401,-0.287392349452,0.0,0.0,0.0,-0.619372093252,0.785097579987
1634830878866734459,0.179273740414,-0.287154154051,0.0,0.0,0.0,-0.615215413573,0.78835905202
1634830878885828619,0.179230315591,-0.28698419686,0.0,0.0,0.0,-0.610612021225,0.791929895594
