%time,field.position.x,field.position.y,field.position.z,field.orientation.x,field.orientation.y,field.orientation.z,field.orientation.w
1634830732769328265,0.331476231984,0.793769301805,0.0,0.0,0.0,-0.724830352653,0.688927398115
1634830732781667651,0.331476231984,0.793769301805,0.0,0.0,0.0,-0.724830352653,0.688927398115
1634830732800299787,0.331476231984,0.793769301805,0.0,0.0,0.0,-0.724830352653,0.688927398115
1634830732820342524,0.331476231984,0.793769301805,0.0,0.0,0.0,-0.724830352653,0.688927398115
1634830732839528738,0.331476231984,0.793769301805,0.0,0.0,0.0,-0.724830352653,0.688927398115
1634830732860271109,0.331476231984,0.793769301805,0.0,0.0,0.0,-0.724830352653,0.688927398115
1634830732880450273,0.331476231984,0.793769301805,0.0,0.0,0.0,-0.724830352653,0.688927398115
1634830732900599290,0.331476231984,0.793769301805,0.0,0.0,0.0,-0.724830352653,0.688927398115
1634830732919533990,0.331476231984,0.793769301805,0.0,0.0,0.0,-0.724830352653,0.688927398115
1634830732940303110,0.331476231984,0.793769301805,0.0,0.0,0.0,-0.724830352653,0.688927398115
1634830732960299028,0.331476231984,0.793769301805,0.0,0.0,0.0,-0.724830352653,0.688927398115
1634830732979525107,0.331476231984,0.793769301805,0.0,0.0,0.0,-0.724830352653,0.688927398115
1634830733000422111,0.331476231984,0.793769301805,0.0,0.0,0.0,-0.724830352653,0.688927398115
1634830733019714046,0.331476231984,0.793769301805,0.0,0.0,0.0,-0.724830352653,0.688927398115
1634830733039596739,0.331476231984,0.793769301805,0.0,0.0,0.0,-0.724830352653,0.688927398115
1634830733061442319,0.331476231984,0.793769301805,0.0,0.0,0.0,-0.724830352653,0.688927398115
1634830733084230832,0.331476231984,0.793769301805,0.0,0.0,0.0,-0.724830352653,0.688927398115
1634830733106322267,0.331476231984,0.793769301805,0.0,0.0,0.0,-0.724830352653,0.688927398115
1634830733119030840,0.331476231984,0.793769301805,0.0,0.0,0.0,-0.724830352653,0.688927398115
1634830733144744941,0.331476231984,0.793769301805,0.0,0.0,0.0,-0.724830352653,0.688927398115
1634830733159350486,0.331476231984,0.793769301805,0.0,0.0,0.0,-0.724830352653,0.688927398115
1634830733180482283,0.331476231984,0.793769301805,0.0,0.0,0.0,-0.724830352653,0.688927398115
1634830733199426000,0.331476231984,0.793769301805,0.0,0.0,0.0,-0.724830352653,0.688927398115
1634830733219189076,0.331476231984,0.793769301805,0.0,0.0,0.0,-0.724830352653,0.688927398115
1634830733239119650,0.331476231984,0.793769301805,0.0,0.0,0.0,-0.724830352653,0.688927398115
1634830733260095532,0.331476231984,0.793769301805,0.0,0.0,0.0,-0.724830352653,0.688927398115
1634830733279138235,0.331476231984,0.793769301805,0.0,0.0,0.0,-0.724830352653,0.688927398115
1634830733300193639,0.331476231984,0.793769301805,0.0,0.0,0.0,-0.724830352653,0.688927398115
1634830733319240349,0.331476231984,0.793769301805,0.0,0.0,0.0,-0.724830352653,0.688927398115
1634830733339326027,0.331476231984,0.793769301805,0.0,0.0,0.0,-0.724830352653,0.688927398115
1634830733359026576,0.331476231984,0.793769301805,0.0,0.0,0.0,-0.724830352653,0.688927398115
1634830733380078432,0.331476231984,0.793769301805,0.0,0.0,0.0,-0.724830352653,0.688927398115
1634830733398947297,0.331476231984,0.793769301805,0.0,0.0,0.0,-0.724830352653,0.688927398115
1634830733419006202,0.331476231984,0.793769301805,0.0,0.0,0.0,-0.724830352653,0.688927398115
1634830733439283342,0.331476231984,0.793769301805,0.0,0.0,0.0,-0.724830352653,0.688927398115
1634830733459086586,0.331476231984,0.793769301805,0.0,0.0,0.0,-0.724830352653,0.688927398115
1634830733479067556,0.331476231984,0.793769301805,0.0,0.0,0.0,-0.724830352653,0.688927398115
1634830733499082839,0.331476231984,0.793769301805,0.0,0.0,0.0,-0.724830352653,0.688927398115
1634830733518902002,0.331476231984,0.793769301805,0.0,0.0,0.0,-0.724830352653,0.688927398115
1634830733541100128,0.331476231984,0.793769301805,0.0,0.0,0.0,-0.724830352653,0.688927398115
1634830733559043962,0.331476231984,0.793769301805,0.0,0.0,0.0,-0.724830352653,0.688927398115
1634830733579631979,0.331476231984,0.793769301805,0.0,0.0,0.0,-0.724830352653,0.688927398115
1634830733599991445,0.331476231984,0.793769301805,0.0,0.0,0.0,-0.724830352653,0.688927398115
1634830733619903564,0.331476231984,0.793769301805,0.0,0.0,0.0,-0.724830352653,0.688927398115
1634830733640010793,0.331476231984,0.793769301805,0.0,0.0,0.0,-0.724830352653,0.688927398115
1634830733658975448,0.331476231984,0.793769301805,0.0,0.0,0.0,-0.724830352653,0.688927398115
1634830733681953861,0.331476231984,0.793769301805,0.0,0.0,0.0,-0.724830352653,0.688927398115
1634830733700093244,0.331476231984,0.793769301805,0.0,0.0,0.0,-0.724830352653,0.688927398115
1634830733719140998,0.331476231984,0.793769301805,0.0,0.0,0.0,-0.724830352653,0.688927398115
1634830733738862255,0.331476231984,0.793769301805,0.0,0.0,0.0,-0.724830352653,0.688927398115
1634830733758769244,0.331476231984,0.793769301805,0.0,0.0,0.0,-0.724830352653,0.688927398115
1634830733778924063,0.331476231984,0.793769301805,0.0,0.0,0.0,-0.724830352653,0.688927398115
1634830733799992359,0.331476231984,0.793769301805,0.0,0.0,0.0,-0.724830352653,0.688927398115
1634830733818742339,0.331476231984,0.793769301805,0.0,0.0,0.0,-0.724830352653,0.688927398115
1634830733841086873,0.331476231984,0.793769301805,0.0,0.0,0.0,-0.724830352653,0.688927398115
1634830733859846139,0.331476231984,0.793769301805,0.0,0.0,0.0,-0.724830352653,0.688927398115
1634830733880367071,0.331476231984,0.793769301805,0.0,0.0,0.0,-0.724830352653,0.688927398115
1634830733898930287,0.331476231984,0.793769301805,0.0,0.0,0.0,-0.724830352653,0.688927398115
1634830733918766171,0.331476231984,0.793769301805,0.0,0.0,0.0,-0.724830352653,0.688927398115
1634830733939808289,0.331476231984,0.793769301805,0.0,0.0,0.0,-0.724830352653,0.688927398115
1634830733958903622,0.331476231984,0.793769301805,0.0,0.0,0.0,-0.724830352653,0.688927398115
1634830733979860558,0.331476231984,0.793769301805,0.0,0.0,0.0,-0.724830352653,0.688927398115
1634830733998907761,0.331476231984,0.793769301805,0.0,0.0,0.0,-0.724830352653,0.688927398115
1634830734020015572,0.331476231984,0.793769301805,0.0,0.0,0.0,-0.724830352653,0.688927398115
1634830734039048448,0.331476231984,0.793769301805,0.0,0.0,0.0,-0.724830352653,0.688927398115
1634830734058862381,0.331476231984,0.793769301805,0.0,0.0,0.0,-0.724830352653,0.688927398115
1634830734079239179,0.331476231984,0.793769301805,0.0,0.0,0.0,-0.724830352653,0.688927398115
1634830734099988843,0.331476231984,0.793769301805,0.0,0.0,0.0,-0.724830352653,0.688927398115
1634830734118653811,0.331476231984,0.793769301805,0.0,0.0,0.0,-0.724830352653,0.688927398115
1634830734138780135,0.331476231984,0.793769301805,0.0,0.0,0.0,-0.724830352653,0.688927398115
1634830734158786904,0.331476231984,0.793769301805,0.0,0.0,0.0,-0.724830352653,0.688927398115
1634830734178866890,0.331476231984,0.793769301805,0.0,0.0,0.0,-0.724830352653,0.688927398115
1634830734198840425,0.331476231984,0.793769301805,0.0,0.0,0.0,-0.724830352653,0.688927398115
1634830734219804916,0.331476231984,0.793769301805,0.0,0.0,0.0,-0.724830352653,0.688927398115
1634830734239255512,0.331476231984,0.793769301805,0.0,0.0,0.0,-0.724830352653,0.688927398115
1634830734258537117,0.331476231984,0.793769301805,0.0,0.0,0.0,-0.724830352653,0.688927398115
1634830734279742194,0.331476231984,0.793769301805,0.0,0.0,0.0,-0.724830352653,0.688927398115
1634830734298774978,0.331476231984,0.793769301805,0.0,0.0,0.0,-0.724830352653,0.688927398115
1634830734318771989,0.331476231984,0.793769301805,0.0,0.0,0.0,-0.724830352653,0.688927398115
1634830734339791332,0.331476231984,0.793769301805,0.0,0.0,0.0,-0.724830352653,0.688927398115
1634830734360441840,0.331476231984,0.793769301805,0.0,0.0,0.0,-0.724830352653,0.688927398115
1634830734379942028,0.331476231984,0.793769301805,0.0,0.0,0.0,-0.724830352653,0.688927398115
1634830734399669648,0.331476231984,0.793769301805,0.0,0.0,0.0,-0.724830352653,0.688927398115
1634830734419620149,0.331476231984,0.793769301805,0.0,0.0,0.0,-0.724830352653,0.688927398115
1634830734438731975,0.331476231984,0.793769301805,0.0,0.0,0.0,-0.724830352653,0.688927398115
1634830734458659512,0.331476231984,0.793769301805,0.0,0.0,0.0,-0.724830352653,0.688927398115
1634830734479761122,0.331476231984,0.793769301805,0.0,0.0,0.0,-0.724830352653,0.688927398115
1634830734500932105,0.331476231984,0.793769301805,0.0,0.0,0.0,-0.724830352653,0.688927398115
1634830734519483618,0.331476231984,0.793769301805,0.0,0.0,0.0,-0.724830352653,0.688927398115
1634830734539265781,0.331476231984,0.793769301805,0.0,0.0,0.0,-0.724830352653,0.688927398115
1634830734558561583,0.331476231984,0.793769301805,0.0,0.0,0.0,-0.724830352653,0.688927398115
1634830734579562543,0.331476231984,0.793769301805,0.0,0.0,0.0,-0.724830352653,0.688927398115
1634830734598463458,0.331476231984,0.793769301805,0.0,0.0,0.0,-0.724830352653,0.688927398115
1634830734619292863,0.331476231984,0.793769301805,0.0,0.0,0.0,-0.724830352653,0.688927398115
1634830734639506132,0.331476231984,0.793769301805,0.0,0.0,0.0,-0.724830352653,0.688927398115
1634830734658292981,0.331476231984,0.793769301805,0.0,0.0,0.0,-0.724830352653,0.688927398115
1634830734678445365,0.331476231984,0.793769301805,0.0,0.0,0.0,-0.724830352653,0.688927398115
1634830734698627154,0.331476231984,0.793769301805,0.0,0.0,0.0,-0.724830352653,0.688927398115
1634830734718302365,0.331476231984,0.793769301805,0.0,0.0,0.0,-0.724830352653,0.688927398115
1634830734739405679,0.331476231984,0.793769301805,0.0,0.0,0.0,-0.724830352653,0.688927398115
1634830734759533516,0.331476231984,0.793769301805,0.0,0.0,0.0,-0.724830352653,0.688927398115
1634830734779343031,0.331476231984,0.793769301805,0.0,0.0,0.0,-0.724830352653,0.688927398115
1634830734799088815,0.331476231984,0.793769301805,0.0,0.0,0.0,-0.724830352653,0.688927398115
1634830734819309979,0.331476231984,0.793769301805,0.0,0.0,0.0,-0.724830352653,0.688927398115
1634830734838327514,0.331476231984,0.793769301805,0.0,0.0,0.0,-0.724830352653,0.688927398115
1634830734859314598,0.331476231984,0.793769301805,0.0,0.0,0.0,-0.724830352653,0.688927398115
1634830734880289148,0.331476231984,0.793769301805,0.0,0.0,0.0,-0.724830352653,0.688927398115
1634830734898463377,0.331476231984,0.793769301805,0.0,0.0,0.0,-0.724830352653,0.688927398115
1634830734918732301,0.331476231984,0.793769301805,0.0,0.0,0.0,-0.724830352653,0.688927398115
1634830734939761766,0.331476231984,0.793769301805,0.0,0.0,0.0,-0.724830352653,0.688927398115
1634830734958382751,0.331476231984,0.793769301805,0.0,0.0,0.0,-0.724830352653,0.688927398115
1634830734979257251,0.331476231984,0.793769301805,0.0,0.0,0.0,-0.724830352653,0.688927398115
1634830734999298004,0.331476231984,0.793769301805,0.0,0.0,0.0,-0.724830352653,0.688927398115
1634830735018272598,0.331476231984,0.793769301805,0.0,0.0,0.0,-0.724830352653,0.688927398115
1634830735039360363,0.331476231984,0.793769301805,0.0,0.0,0.0,-0.724830352653,0.688927398115
1634830735058774960,0.331476231984,0.793769301805,0.0,0.0,0.0,-0.724830352653,0.688927398115
1634830735078179558,0.331476231984,0.793769301805,0.0,0.0,0.0,-0.724830352653,0.688927398115
1634830735098487626,0.331476231984,0.793769301805,0.0,0.0,0.0,-0.724830352653,0.688927398115
1634830735118101050,0.331476231984,0.793769301805,0.0,0.0,0.0,-0.724830352653,0.688927398115
1634830735138643212,0.331476231984,0.793769301805,0.0,0.0,0.0,-0.724830352653,0.688927398115
1634830735158193225,0.331476231984,0.793769301805,0.0,0.0,0.0,-0.724830352653,0.688927398115
1634830735179414462,0.331476231984,0.793769301805,0.0,0.0,0.0,-0.724830352653,0.688927398115
1634830735199233174,0.331476231984,0.793769301805,0.0,0.0,0.0,-0.724830352653,0.688927398115
1634830735218213039,0.331476231984,0.793769301805,0.0,0.0,0.0,-0.724830352653,0.688927398115
1634830735238453108,0.331476231984,0.793769301805,0.0,0.0,0.0,-0.724830352653,0.688927398115
1634830735257962034,0.331476231984,0.793769301805,0.0,0.0,0.0,-0.724830352653,0.688927398115
1634830735282023156,0.331476231984,0.793769301805,0.0,0.0,0.0,-0.724830352653,0.688927398115
1634830735299361002,0.331476231984,0.793769301805,0.0,0.0,0.0,-0.724830352653,0.688927398115
1634830735320460989,0.331476231984,0.793769301805,0.0,0.0,0.0,-0.724830352653,0.688927398115
1634830735339277785,0.331476231984,0.793769301805,0.0,0.0,0.0,-0.724830352653,0.688927398115
1634830735359446620,0.331476231984,0.793769301805,0.0,0.0,0.0,-0.724830352653,0.688927398115
1634830735379780557,0.331476231984,0.793769301805,0.0,0.0,0.0,-0.724830352653,0.688927398115
1634830735400207601,0.331476231984,0.793769301805,0.0,0.0,0.0,-0.724830352653,0.688927398115
1634830735419145215,0.331476231984,0.793769301805,0.0,0.0,0.0,-0.724830352653,0.688927398115
1634830735439042746,0.331476231984,0.793769301805,0.0,0.0,0.0,-0.724830352653,0.688927398115
1634830735458245984,0.331476231984,0.793769301805,0.0,0.0,0.0,-0.724830352653,0.688927398115
1634830735478004573,0.331476231984,0.793769301805,0.0,0.0,0.0,-0.724830352653,0.688927398115
1634830735499120580,0.331476231984,0.793769301805,0.0,0.0,0.0,-0.724830352653,0.688927398115
1634830735518051261,0.331476231984,0.793769301805,0.0,0.0,0.0,-0.724830352653,0.688927398115
1634830735542057610,0.331476231984,0.793769301805,0.0,0.0,0.0,-0.724830352653,0.688927398115
1634830735557989966,0.331476231984,0.793769301805,0.0,0.0,0.0,-0.724830352653,0.688927398115
1634830735579574701,0.331476231984,0.793769301805,0.0,0.0,0.0,-0.724830352653,0.688927398115
1634830735598077983,0.331476231984,0.793769301805,0.0,0.0,0.0,-0.724830352653,0.688927398115
1634830735618046379,0.331476231984,0.793769301805,0.0,0.0,0.0,-0.724830352653,0.688927398115
1634830735639067707,0.331476231984,0.793769301805,0.0,0.0,0.0,-0.724830352653,0.688927398115
1634830735659024340,0.331476231984,0.793769301805,0.0,0.0,0.0,-0.724830352653,0.688927398115
1634830735677859380,0.331476231984,0.793769301805,0.0,0.0,0.0,-0.724830352653,0.688927398115
1634830735698953436,0.331476231984,0.793769301805,0.0,0.0,0.0,-0.724830352653,0.688927398115
1634830735718020768,0.331476231984,0.793769301805,0.0,0.0,0.0,-0.724830352653,0.688927398115
1634830735737913599,0.331476231984,0.793769301805,0.0,0.0,0.0,-0.724830352653,0.688927398115
1634830735757884128,0.331476231984,0.793769301805,0.0,0.0,0.0,-0.724830352653,0.688927398115
1634830735777960809,0.331476231984,0.793769301805,0.0,0.0,0.0,-0.724830352653,0.688927398115
1634830735798096451,0.331476231984,0.793769301805,0.0,0.0,0.0,-0.724830352653,0.688927398115
1634830735818766164,0.331476231984,0.793769301805,0.0,0.0,0.0,-0.724830352653,0.688927398115
1634830735839903842,0.331476231984,0.793769301805,0.0,0.0,0.0,-0.724830352653,0.688927398115
1634830735857785839,0.331476231984,0.793769301805,0.0,0.0,0.0,-0.724830352653,0.688927398115
1634830735877906522,0.331476231984,0.793769301805,0.0,0.0,0.0,-0.724830352653,0.688927398115
1634830735897832398,0.331476231984,0.793769301805,0.0,0.0,0.0,-0.724830352653,0.688927398115
1634830735919047874,0.331476231984,0.793769301805,0.0,0.0,0.0,-0.724830352653,0.688927398115
1634830735937844922,0.331476231984,0.793769301805,0.0,0.0,0.0,-0.724830352653,0.688927398115
1634830735958751274,0.331476231984,0.793769301805,0.0,0.0,0.0,-0.724830352653,0.688927398115
1634830735977907952,0.331476231984,0.793769301805,0.0,0.0,0.0,-0.724830352653,0.688927398115
1634830735998862653,0.331476231984,0.793769301805,0.0,0.0,0.0,-0.724830352653,0.688927398115
1634830736018664795,0.331476231984,0.793769301805,0.0,0.0,0.0,-0.724830352653,0.688927398115
1634830736038929711,0.331476231984,0.793769301805,0.0,0.0,0.0,-0.724830352653,0.688927398115
1634830736058671768,0.331476231984,0.793769301805,0.0,0.0,0.0,-0.724830352653,0.688927398115
1634830736078693916,0.331476231984,0.793769301805,0.0,0.0,0.0,-0.724830352653,0.688927398115
1634830736101904178,0.331476231984,0.793769301805,0.0,0.0,0.0,-0.724830352653,0.688927398115
1634830736117561783,0.331476231984,0.793769301805,0.0,0.0,0.0,-0.724830352653,0.688927398115
1634830736139599246,0.331476231984,0.793769301805,0.0,0.0,0.0,-0.724830352653,0.688927398115
1634830736157753978,0.331476231984,0.793769301805,0.0,0.0,0.0,-0.724830352653,0.688927398115
1634830736180786853,0.331476231984,0.793769301805,0.0,0.0,0.0,-0.724830352653,0.688927398115
1634830736198598637,0.331476231984,0.793769301805,0.0,0.0,0.0,-0.724830352653,0.688927398115
1634830736217712395,0.331476231984,0.793769301805,0.0,0.0,0.0,-0.724830352653,0.688927398115
1634830736238094303,0.331476231984,0.793769301805,0.0,0.0,0.0,-0.724830352653,0.688927398115
1634830736257780554,0.331476231984,0.793769301805,0.0,0.0,0.0,-0.724830352653,0.688927398115
1634830736279636744,0.331476231984,0.793769301805,0.0,0.0,0.0,-0.724830352653,0.688927398115
1634830736298095952,0.331476231984,0.793769301805,0.0,0.0,0.0,-0.724830352653,0.688927398115
1634830736317823191,0.331476231984,0.793769301805,0.0,0.0,0.0,-0.724830352653,0.688927398115
1634830736351514761,0.331476231984,0.793769301805,0.0,0.0,0.0,-0.724830352653,0.688927398115
1634830736358354598,0.331476231984,0.793769301805,0.0,0.0,0.0,-0.724830352653,0.688927398115
1634830736379257382,0.331476231984,0.793769301805,0.0,0.0,0.0,-0.724830352653,0.688927398115
1634830736397718274,0.331476231984,0.793769301805,0.0,0.0,0.0,-0.724830352653,0.688927398115
1634830736417643066,0.331476231984,0.793769301805,0.0,0.0,0.0,-0.724830352653,0.688927398115
1634830736438897797,0.331476231984,0.793769301805,0.0,0.0,0.0,-0.724830352653,0.688927398115
1634830736458231631,0.331476231984,0.793769301805,0.0,0.0,0.0,-0.724830352653,0.688927398115
1634830736478596888,0.331476231984,0.793769301805,0.0,0.0,0.0,-0.724830352653,0.688927398115
1634830736498623943,0.331476231984,0.793769301805,0.0,0.0,0.0,-0.724830352653,0.688927398115
1634830736517591746,0.331476231984,0.793769301805,0.0,0.0,0.0,-0.724830352653,0.688927398115
1634830736538158904,0.331476231984,0.793769301805,0.0,0.0,0.0,-0.724830352653,0.688927398115
1634830736557398060,0.331476231984,0.793769301805,0.0,0.0,0.0,-0.724830352653,0.688927398115
1634830736579035414,0.331476231984,0.793769301805,0.0,0.0,0.0,-0.724830352653,0.688927398115
1634830736598479768,0.331476231984,0.793769301805,0.0,0.0,0.0,-0.724830352653,0.688927398115
1634830736617339063,0.331476231984,0.793769301805,0.0,0.0,0.0,-0.724830352653,0.688927398115
1634830736638777251,0.331476231984,0.793769301805,0.0,0.0,0.0,-0.724830352653,0.688927398115
1634830736657561746,0.331476231984,0.793769301805,0.0,0.0,0.0,-0.724830352653,0.688927398115
1634830736678502441,0.331476231984,0.793769301805,0.0,0.0,0.0,-0.724830352653,0.688927398115
1634830736699868653,0.331476231984,0.793769301805,0.0,0.0,0.0,-0.724830352653,0.688927398115
1634830736718370293,0.331476231984,0.793769301805,0.0,0.0,0.0,-0.724830352653,0.688927398115
1634830736738486588,0.331476231984,0.793769301805,0.0,0.0,0.0,-0.724830352653,0.688927398115
1634830736757694564,0.331476231984,0.793769301805,0.0,0.0,0.0,-0.724830352653,0.688927398115
1634830736777913413,0.331476231984,0.793769301805,0.0,0.0,0.0,-0.724830352653,0.688927398115
1634830736798745674,0.331476231984,0.793769301805,0.0,0.0,0.0,-0.724830352653,0.688927398115
1634830736817899357,0.331476231984,0.793769301805,0.0,0.0,0.0,-0.724830352653,0.688927398115
1634830736837555922,0.331476231984,0.793769301805,0.0,0.0,0.0,-0.724830352653,0.688927398115
1634830736858049051,0.331476231984,0.793769301805,0.0,0.0,0.0,-0.724830352653,0.688927398115
1634830736878426370,0.331476231984,0.793769301805,0.0,0.0,0.0,-0.724830352653,0.688927398115
1634830736898384287,0.331476231984,0.793769301805,0.0,0.0,0.0,-0.724830352653,0.688927398115
1634830736920391732,0.331476231984,0.793769301805,0.0,0.0,0.0,-0.724830352653,0.688927398115
1634830736938208153,0.331476231984,0.793769301805,0.0,0.0,0.0,-0.724830352653,0.688927398115
1634830736958780643,0.331476231984,0.793769301805,0.0,0.0,0.0,-0.724830352653,0.688927398115
1634830736977442134,0.331476231984,0.793769301805,0.0,0.0,0.0,-0.724830352653,0.688927398115
1634830736998165418,0.331476231984,0.793769301805,0.0,0.0,0.0,-0.724830352653,0.688927398115
1634830737018542406,0.331476231984,0.793769301805,0.0,0.0,0.0,-0.724830352653,0.688927398115
1634830737038462041,0.331476231984,0.793769301805,0.0,0.0,0.0,-0.724830352653,0.688927398115
1634830737057097783,0.331476231984,0.793769301805,0.0,0.0,0.0,-0.724830352653,0.688927398115
1634830737077286066,0.331476231984,0.793769301805,0.0,0.0,0.0,-0.724830352653,0.688927398115
1634830737098586962,0.331476231984,0.793769301805,0.0,0.0,0.0,-0.724830352653,0.688927398115
1634830737118526584,0.331476231984,0.793769301805,0.0,0.0,0.0,-0.724830352653,0.688927398115
1634830737138453762,0.331476231984,0.793769301805,0.0,0.0,0.0,-0.724830352653,0.688927398115
1634830737157592396,0.331476231984,0.793769301805,0.0,0.0,0.0,-0.724830352653,0.688927398115
1634830737179581776,0.331476231984,0.793769301805,0.0,0.0,0.0,-0.724830352653,0.688927398115
1634830737197672237,0.331476231984,0.793769301805,0.0,0.0,0.0,-0.724830352653,0.688927398115
1634830737217241487,0.331476231984,0.793769301805,0.0,0.0,0.0,-0.724830352653,0.688927398115
1634830737237228948,0.331476231984,0.793769301805,0.0,0.0,0.0,-0.724830352653,0.688927398115
1634830737256978480,0.331476231984,0.793769301805,0.0,0.0,0.0,-0.724830352653,0.688927398115
1634830737277227737,0.331476231984,0.793769301805,0.0,0.0,0.0,-0.724830352653,0.688927398115
1634830737298382909,0.331476231984,0.793769301805,0.0,0.0,0.0,-0.724830352653,0.688927398115
1634830737318111701,0.331476231984,0.793769301805,0.0,0.0,0.0,-0.724830352653,0.688927398115
1634830737338238436,0.331476231984,0.793769301805,0.0,0.0,0.0,-0.724830352653,0.688927398115
1634830737357145283,0.331476231984,0.793769301805,0.0,0.0,0.0,-0.724830352653,0.688927398115
1634830737378148276,0.331476231984,0.793769301805,0.0,0.0,0.0,-0.724830352653,0.688927398115
1634830737397962019,0.331476231984,0.793769301805,0.0,0.0,0.0,-0.724830352653,0.688927398115
1634830737416997158,0.331476231984,0.793769301805,0.0,0.0,0.0,-0.724830352653,0.688927398115
1634830737438748778,0.331476231984,0.793769301805,0.0,0.0,0.0,-0.724830352653,0.688927398115
1634830737457023508,0.331476231984,0.793769301805,0.0,0.0,0.0,-0.724830352653,0.688927398115
1634830737477059411,0.331476231984,0.793769301805,0.0,0.0,0.0,-0.724830352653,0.688927398115
1634830737498064739,0.331476231984,0.793769301805,0.0,0.0,0.0,-0.724830352653,0.688927398115
1634830737517940289,0.331476231984,0.793769301805,0.0,0.0,0.0,-0.724830352653,0.688927398115
1634830737538472041,0.331476231984,0.793769301805,0.0,0.0,0.0,-0.724830352653,0.688927398115
1634830737557892179,0.331476231984,0.793769301805,0.0,0.0,0.0,-0.724830352653,0.688927398115
1634830737577960943,0.331476231984,0.793769301805,0.0,0.0,0.0,-0.724830352653,0.688927398115
1634830737597941302,0.331476231984,0.793769301805,0.0,0.0,0.0,-0.724830352653,0.688927398115
1634830737617818084,0.331476231984,0.793769301805,0.0,0.0,0.0,-0.724830352653,0.688927398115
1634830737638056891,0.331476231984,0.793769301805,0.0,0.0,0.0,-0.724830352653,0.688927398115
1634830737656843440,0.331476231984,0.793769301805,0.0,0.0,0.0,-0.724830352653,0.688927398115
1634830737677229496,0.331476231984,0.793769301805,0.0,0.0,0.0,-0.724830352653,0.688927398115
1634830737698109867,0.331476231984,0.793769301805,0.0,0.0,0.0,-0.724830352653,0.688927398115
1634830737716823217,0.331476231984,0.793769301805,0.0,0.0,0.0,-0.724830352653,0.688927398115
1634830737739435657,0.331476231984,0.793769301805,0.0,0.0,0.0,-0.724830352653,0.688927398115
1634830737757995527,0.331476231984,0.793769301805,0.0,0.0,0.0,-0.724830352653,0.688927398115
1634830737778093147,0.331476231984,0.793769301805,0.0,0.0,0.0,-0.724830352653,0.688927398115
1634830737797998423,0.331476231984,0.793769301805,0.0,0.0,0.0,-0.724830352653,0.688927398115
1634830737818107665,0.331476231984,0.793769301805,0.0,0.0,0.0,-0.724830352653,0.688927398115
1634830737836983051,0.331476231984,0.793769301805,0.0,0.0,0.0,-0.724830352653,0.688927398115
1634830737857067396,0.331476231984,0.793769301805,0.0,0.0,0.0,-0.724830352653,0.688927398115
1634830737878173204,0.331476231984,0.793769301805,0.0,0.0,0.0,-0.724830352653,0.688927398115
1634830737897951801,0.331476231984,0.793769301805,0.0,0.0,0.0,-0.724830352653,0.688927398115
1634830737916927788,0.331476231984,0.793769301805,0.0,0.0,0.0,-0.724830352653,0.688927398115
1634830737937950188,0.331476231984,0.793769301805,0.0,0.0,0.0,-0.724830352653,0.688927398115
1634830737956929211,0.331476231984,0.793769301805,0.0,0.0,0.0,-0.724830352653,0.688927398115
1634830737976938424,0.331476231984,0.793769301805,0.0,0.0,0.0,-0.724830352653,0.688927398115
1634830737998270480,0.331476231984,0.793769301805,0.0,0.0,0.0,-0.724830352653,0.688927398115
1634830738017717298,0.331476231984,0.793769301805,0.0,0.0,0.0,-0.724830352653,0.688927398115
1634830738038610264,0.331476231984,0.793769301805,0.0,0.0,0.0,-0.724830352653,0.688927398115
1634830738057926545,0.331476231984,0.793769301805,0.0,0.0,0.0,-0.724830352653,0.688927398115
1634830738076796622,0.331476231984,0.793769301805,0.0,0.0,0.0,-0.724830352653,0.688927398115
1634830738097856423,0.331476231984,0.793769301805,0.0,0.0,0.0,-0.724830352653,0.688927398115
1634830738116908013,0.331476231984,0.793769301805,0.0,0.0,0.0,-0.724830352653,0.688927398115
1634830738137613734,0.331476231984,0.793769301805,0.0,0.0,0.0,-0.724830352653,0.688927398115
1634830738156654183,0.331476231984,0.793769301805,0.0,0.0,0.0,-0.724830352653,0.688927398115
1634830738176690778,0.331476231984,0.793769301805,0.0,0.0,0.0,-0.724830352653,0.688927398115
1634830738196662469,0.331476231984,0.793769301805,0.0,0.0,0.0,-0.724830352653,0.688927398115
1634830738216534001,0.331476231984,0.793769301805,0.0,0.0,0.0,-0.724830352653,0.688927398115
1634830738237810192,0.331476231984,0.793769301805,0.0,0.0,0.0,-0.724830352653,0.688927398115
1634830738256717409,0.331476231984,0.793769301805,0.0,0.0,0.0,-0.724830352653,0.688927398115
1634830738276839596,0.331476231984,0.793769301805,0.0,0.0,0.0,-0.724830352653,0.688927398115
1634830738297669432,0.331476231984,0.793769301805,0.0,0.0,0.0,-0.724830352653,0.688927398115
1634830738318253493,0.331476231984,0.793769301805,0.0,0.0,0.0,-0.724830352653,0.688927398115
1634830738337605531,0.331476231984,0.793769301805,0.0,0.0,0.0,-0.724830352653,0.688927398115
1634830738357309015,0.331476231984,0.793769301805,0.0,0.0,0.0,-0.724830352653,0.688927398115
1634830738377962688,0.331476231984,0.793769301805,0.0,0.0,0.0,-0.724830352653,0.688927398115
1634830738397868384,0.331476231984,0.793769301805,0.0,0.0,0.0,-0.724830352653,0.688927398115
1634830738416445256,0.331476231984,0.793769301805,0.0,0.0,0.0,-0.724830352653,0.688927398115
1634830738437759168,0.331476231984,0.793769301805,0.0,0.0,0.0,-0.724830352653,0.688927398115
1634830738457681337,0.331476231984,0.793769301805,0.0,0.0,0.0,-0.724830352653,0.688927398115
1634830738477991729,0.331476231984,0.793769301805,0.0,0.0,0.0,-0.724830352653,0.688927398115
1634830738497774323,0.331476231984,0.793769301805,0.0,0.0,0.0,-0.724830352653,0.688927398115
1634830738517514537,0.331476231984,0.793769301805,0.0,0.0,0.0,-0.724830352653,0.688927398115
1634830738562811183,0.331476231984,0.793769301805,0.0,0.0,0.0,-0.724830352653,0.688927398115
1634830738566536523,0.331476231984,0.793769301805,0.0,0.0,0.0,-0.724830352653,0.688927398115
1634830738576521332,0.331476231984,0.793769301805,0.0,0.0,0.0,-0.724830352653,0.688927398115
1634830738604896039,0.331476231984,0.793769301805,0.0,0.0,0.0,-0.724830352653,0.688927398115
1634830738617293484,0.331476231984,0.793769301805,0.0,0.0,0.0,-0.724830352653,0.688927398115
1634830738645883738,0.331476231984,0.793769301805,0.0,0.0,0.0,-0.724830352653,0.688927398115
1634830738663527464,0.331476231984,0.793769301805,0.0,0.0,0.0,-0.724830352653,0.688927398115
1634830738677639065,0.331476231984,0.793769301805,0.0,0.0,0.0,-0.724830352653,0.688927398115
1634830738700212681,0.331476231984,0.793769301805,0.0,0.0,0.0,-0.724830352653,0.688927398115
1634830738716301091,0.331476231984,0.793769301805,0.0,0.0,0.0,-0.724830352653,0.688927398115
1634830738736741872,0.331474527966,0.793735818594,0.0,0.0,0.0,-0.724864797028,0.688891156881
1634830738758205357,0.331467704406,0.793602240283,0.0,0.0,0.0,-0.724952026579,0.688799360597
1634830738776530162,0.331449162681,0.7932409182,0.0,0.0,0.0,-0.725015364868,0.688732691765
1634830738802564339,0.331427624512,0.792820385045,0.0,0.0,0.0,-0.724945600771,0.68880612361
1634830738817405319,0.331396517965,0.792210147016,0.0,0.0,0.0,-0.724829136471,0.688928677675
1634830738837961557,0.331356630291,0.791424931657,0.0,0.0,0.0,-0.724799459716,0.688959899555
1634830738858750355,0.331300884034,0.790324314243,0.0,0.0,0.0,-0.724663257765,0.689103158348
1634830738877203622,0.331233326712,0.788979436194,0.0,0.0,0.0,-0.724571785411,0.689199338208
1634830738897532410,0.331149102825,0.787302023951,0.0,0.0,0.0,-0.7246888374,0.689076257716
1634830738916177030,0.331051759021,0.785377099484,0.0,0.0,0.0,-0.724859050122,0.688897203838
1634830738936200399,0.330940134301,0.783197649716,0.0,0.0,0.0,-0.725042913774,0.688703690411
1634830738956360559,0.330814933867,0.780780964318,0.0,0.0,0.0,-0.725309680948,0.688422738383
1634830738976446427,0.330682389917,0.778249583866,0.0,0.0,0.0,-0.725409396286,0.688317664876
1634830738996658053,0.330536701392,0.77546814003,0.0,0.0,0.0,-0.725347770003,0.688382606224
1634830739016141490,0.330387456248,0.772616150228,0.0,0.0,0.0,-0.725341761605,0.688388937209
1634830739037264070,0.330240401243,0.769826739333,0.0,0.0,0.0,-0.725659841811,0.688053627258
1634830739056121412,0.330096273698,0.767135621709,0.0,0.0,0.0,-0.725891379892,0.687809351927
1634830739076372372,0.329953801547,0.764481211851,0.0,0.0,0.0,-0.725724893423,0.687985013693
1634830739097664443,0.329813051411,0.761828293948,0.0,0.0,0.0,-0.725499897643,0.688222274066
1634830739116506917,0.329681207139,0.759325649695,0.0,0.0,0.0,-0.725435084187,0.688290591705
1634830739137294403,0.329566065708,0.757158404703,0.0,0.0,0.0,-0.725904249641,0.687795769362
1634830739157171085,0.32946127983,0.755244522609,0.0,0.0,0.0,-0.726473644277,0.687194327808
1634830739177459807,0.329359024191,0.753411255878,0.0,0.0,0.0,-0.726526621408,0.687138318234
1634830739197301743,0.329252755386,0.751489322981,0.0,0.0,0.0,-0.726191541531,0.687492432692
1634830739216181948,0.329141109244,0.749422992371,0.0,0.0,0.0,-0.725631186709,0.688083847271
1634830739237232482,0.329020286942,0.747122232227,0.0,0.0,0.0,-0.725264369207,0.688470474864
1634830739256173002,0.328924330023,0.745300632742,0.0,0.0,0.0,-0.725662712148,0.688050600027
1634830739276271454,0.328835765037,0.743653962901,0.0,0.0,0.0,-0.725961952655,0.687734864099
1634830739297044734,0.32875377817,0.742151857584,0.0,0.0,0.0,-0.726236407691,0.687445037908
1634830739315995662,0.328680246355,0.740815471805,0.0,0.0,0.0,-0.726275070865,0.687404190735
1634830739336024512,0.328602927727,0.739411010755,0.0,0.0,0.0,-0.726197375251,0.687486270538
1634830739356142220,0.32852390248,0.737964770097,0.0,0.0,0.0,-0.726083518659,0.687606518245
1634830739378282426,0.328440292012,0.73642255314,0.0,0.0,0.0,-0.725920028859,0.687779115488
1634830739396918329,0.328353612926,0.734811697723,0.0,0.0,0.0,-0.725781624993,0.687925165132
1634830739416336884,0.328265957637,0.733176299666,0.0,0.0,0.0,-0.725821784866,0.687882792788
1634830739437275657,0.328172988748,0.731451386741,0.0,0.0,0.0,-0.726021932695,0.687671544595
1634830739457276383,0.328073972609,0.729640015073,0.0,0.0,0.0,-0.726271372598,0.687408098109
1634830739480510510,0.327970903408,0.727776541149,0.0,0.0,0.0,-0.726420071378,0.687250958457
1634830739497206370,0.327855855287,0.725703716766,0.0,0.0,0.0,-0.726436153769,0.687233959068
1634830739515966970,0.327737964458,0.723571641873,0.0,0.0,0.0,-0.726258109928,0.687422110326
1634830739535799449,0.327613967094,0.721308537339,0.0,0.0,0.0,-0.726080781537,0.687609408518
1634830739556316843,0.327495231958,0.719127237635,0.0,0.0,0.0,-0.726104679445,0.687584172657
1634830739584117553,0.32737718932,0.716977144566,0.0,0.0,0.0,-0.726338574893,0.687337089515
1634830739598560670,0.327256008881,0.714794177741,0.0,0.0,0.0,-0.726491864647,0.687175065468
1634830739616729710,0.327137770959,0.712674649154,0.0,0.0,0.0,-0.726565203199,0.687097522554
1634830739642347289,0.327012817751,0.710435409406,0.0,0.0,0.0,-0.72651338045,0.687152317923
1634830739655779021,0.326888594869,0.708197808319,0.0,0.0,0.0,-0.726381427947,0.687291802027
1634830739676920527,0.326769931231,0.706050030103,0.0,0.0,0.0,-0.726318152371,0.687358670227
1634830739696998550,0.32665771682,0.704029532122,0.0,0.0,0.0,-0.726545492076,0.687118365309
1634830739715939902,0.326552863495,0.702163716518,0.0,0.0,0.0,-0.726733641139,0.686919365601
1634830739736909632,0.326451264366,0.700363557157,0.0,0.0,0.0,-0.726743858653,0.686908555712
1634830739755943218,0.32634794796,0.698530741347,0.0,0.0,0.0,-0.72671125744,0.6869430459
1634830739775715934,0.326235027689,0.69651428654,0.0,0.0,0.0,-0.726505754315,0.687160380805
1634830739796843393,0.326130250531,0.694624446565,0.0,0.0,0.0,-0.726311680757,0.687365508587
1634830739816408715,0.325955367127,0.693079046418,0.0,0.0,0.0,-0.727422433589,0.68618991767
1634830739836179537,0.325856558573,0.691396110087,0.0,0.0,0.0,-0.727640718772,0.685958442171
1634830739855743908,0.325755424402,0.689695762256,0.0,0.0,0.0,-0.727947279963,0.685633107131
1634830739875783768,0.325650143041,0.687945999029,0.0,0.0,0.0,-0.728107734061,0.685462710584
1634830739895834690,0.325541404033,0.686143415341,0.0,0.0,0.0,-0.728031753741,0.685543408943
1634830739915870032,0.32542980241,0.684283465862,0.0,0.0,0.0,-0.727926119831,0.685655572477
1634830739936900167,0.325312905228,0.682320200928,0.0,0.0,0.0,-0.727754140514,0.685838108422
1634830739955646840,0.325204300255,0.680485780071,0.0,0.0,0.0,-0.727718262277,0.685876177417
1634830739976778246,0.325095919678,0.67866028834,0.0,0.0,0.0,-0.727858699827,0.685727141862
1634830739996893470,0.324985409254,0.676822020185,0.0,0.0,0.0,-0.728141944066,0.685426370438
1634830740015858286,0.324874966331,0.675002880587,0.0,0.0,0.0,-0.728301753622,0.685256561932
1634830740039067015,0.324755046402,0.673029786758,0.0,0.0,0.0,-0.728192028833,0.685373160507
1634830740055565011,0.324628693533,0.670942541397,0.0,0.0,0.0,-0.728103550411,0.685467154486
1634830740076860809,0.324501428716,0.668825013565,0.0,0.0,0.0,-0.727880802176,0.685703680771
1634830740097091892,0.324377302999,0.666748187012,0.0,0.0,0.0,-0.727913013398,0.685669486652
1634830740115732905,0.324258001665,0.664762583079,0.0,0.0,0.0,-0.72815003753,0.68541777249
1634830740136845156,0.324137173897,0.662776057941,0.0,0.0,0.0,-0.728336630968,0.685219491835
1634830740156971881,0.324016606915,0.660807805053,0.0,0.0,0.0,-0.728438467981,0.685111230652
1634830740176607837,0.32388796448,0.658706183603,0.0,0.0,0.0,-0.728311750618,0.685245936808
1634830740197957417,0.323752651016,0.656474224575,0.0,0.0,0.0,-0.728084216911,0.685487689959
1634830740215606862,0.323623489823,0.654321146694,0.0,0.0,0.0,-0.727891120699,0.685692727399
1634830740235705274,0.323507949315,0.652388919094,0.0,0.0,0.0,-0.727934713477,0.685646448919
1634830740255455266,0.323393963092,0.650489857199,0.0,0.0,0.0,-0.728080155082,0.685492004166
1634830740275609232,0.323281700623,0.648630669558,0.0,0.0,0.0,-0.728145465179,0.685422629871
1634830740300503542,0.323170103888,0.646784134092,0.0,0.0,0.0,-0.728090163497,0.685481373795
1634830740316832679,0.323049546746,0.644782675934,0.0,0.0,0.0,-0.728003461389,0.685573453545
1634830740335533135,0.32292796914,0.642752550284,0.0,0.0,0.0,-0.727891818705,0.685691986436
1634830740355513373,0.322814713428,0.640853425048,0.0,0.0,0.0,-0.727832493185,0.685754957593
1634830740376797357,0.322706405781,0.639044053064,0.0,0.0,0.0,-0.727989204088,0.685588592912
1634830740396585001,0.322598513156,0.637259695864,0.0,0.0,0.0,-0.728255015706,0.685306232351
1634830740415491497,0.322495814714,0.635573761792,0.0,0.0,0.0,-0.728305916337,0.685252137705
1634830740435506841,0.322387222707,0.633794088598,0.0,0.0,0.0,-0.728311964891,0.685245709069
1634830740456499275,0.322269490378,0.631859573179,0.0,0.0,0.0,-0.728193088029,0.685372035137
1634830740475560112,0.322154568106,0.629955151244,0.0,0.0,0.0,-0.727992268833,0.685585338612
1634830740495410194,0.322040190933,0.628047496788,0.0,0.0,0.0,-0.727962664246,0.685616773033
1634830740515334035,0.321934519835,0.62629273983,0.0,0.0,0.0,-0.728162664493,0.685404358054
1634830740536849699,0.321824598588,0.624485978764,0.0,0.0,0.0,-0.728366233531,0.685188025181
1634830740555358071,0.321716044774,0.622719489612,0.0,0.0,0.0,-0.728541066834,0.685002126957
1634830740576716948,0.321601849685,0.620868080354,0.0,0.0,0.0,-0.728562932265,0.68497887101
1634830740596109684,0.321478859319,0.618871588611,0.0,0.0,0.0,-0.728453244425,0.685095519389
1634830740615321417,0.321346591802,0.616705488239,0.0,0.0,0.0,-0.728232904022,0.685329729035
1634830740636695914,0.321227258311,0.614737978749,0.0,0.0,0.0,-0.728165125989,0.68540174299
1634830740656405269,0.321109682823,0.612802625393,0.0,0.0,0.0,-0.728312537512,0.685245100458
1634830740676590275,0.320995797137,0.610944108895,0.0,0.0,0.0,-0.728496895546,0.685049102751
1634830740696441058,0.320879199512,0.609054389218,0.0,0.0,0.0,-0.728612350931,0.684926304117
1634830740715447592,0.320750140891,0.606963955956,0.0,0.0,0.0,-0.72853254311,0.685011192339
1634830740736394800,0.320623525915,0.604907763289,0.0,0.0,0.0,-0.728451237714,0.685097653093
1634830740755512686,0.320494865763,0.602805751911,0.0,0.0,0.0,-0.728295632144,0.68526306788
1634830740776342241,0.320370325847,0.600761031045,0.0,0.0,0.0,-0.728331024265,0.685225451288
1634830740796374107,0.320251193924,0.59881960994,0.0,0.0,0.0,-0.728565923108,0.68497568985
1634830740816524858,0.320136480773,0.596969530545,0.0,0.0,0.0,-0.728751033023,0.684778746654
1634830740836768013,0.320018504741,0.595080019051,0.0,0.0,0.0,-0.728841562416,0.684682391255
1634830740856361951,0.319894502536,0.593094127376,0.0,0.0,0.0,-0.728746321573,0.684783760609
1634830740876562536,0.319767914173,0.59105292992,0.0,0.0,0.0,-0.728559716788,0.684982291065
1634830740896327054,0.319642519881,0.589015582307,0.0,0.0,0.0,-0.728464221657,0.685083847252
1634830740915172905,0.319525021954,0.587105732102,0.0,0.0,0.0,-0.728559202928,0.684982837616
1634830740936650186,0.319412711356,0.585295687295,0.0,0.0,0.0,-0.728802493628,0.68472397744
1634830740955411207,0.319304222037,0.583564674052,0.0,0.0,0.0,-0.728942492866,0.684574935338
1634830740976454756,0.319189078637,0.581735863999,0.0,0.0,0.0,-0.729000757047,0.684512889743
1634830740995280711,0.319069828079,0.579839375124,0.0,0.0,0.0,-0.728901069842,0.68461904033
1634830741016991714,0.31894218283,0.577796096325,0.0,0.0,0.0,-0.72875983258,0.684769381922
1634830741036364291,0.318816078112,0.57576386849,0.0,0.0,0.0,-0.728627623287,0.684910057295
1634830741057483615,0.31869983288,0.573886862661,0.0,0.0,0.0,-0.728656629576,0.684879198235
1634830741079171245,0.318586883926,0.572074506289,0.0,0.0,0.0,-0.728877719952,0.684643899672
1634830741098452159,0.318472447528,0.570252096373,0.0,0.0,0.0,-0.728957819769,0.684558614727
1634830741118971698,0.318355657135,0.568396806409,0.0,0.0,0.0,-0.728982336365,0.684532507094
1634830741135129961,0.318229502612,0.566391002819,0.0,0.0,0.0,-0.728911822015,0.684607592513
1634830741157434769,0.318100724122,0.564330622193,0.0,0.0,0.0,-0.728709376814,0.684823075067
1634830741176332158,0.317977776203,0.562350582391,0.0,0.0,0.0,-0.728666218086,0.684868996685
1634830741196330180,0.317863556805,0.560513895071,0.0,0.0,0.0,-0.728794679038,0.684732294992
1634830741215855105,0.317747644552,0.558667411487,0.0,0.0,0.0,-0.729043300495,0.68446757849
1634830741241394004,0.31763011583,0.556813555172,0.0,0.0,0.0,-0.729205910654,0.684294337159
1634830741257572476,0.317512556376,0.554966793571,0.0,0.0,0.0,-0.729212000893,0.684287847148
1634830741278391662,0.317383524557,0.552930890298,0.0,0.0,0.0,-0.729054687846,0.684455449339
1634830741297781692,0.317252756784,0.550853435502,0.0,0.0,0.0,-0.728892883142,0.684627756452
1634830741316225783,0.317122865041,0.548779355922,0.0,0.0,0.0,-0.728885447754,0.684635672495
1634830741336412932,0.317005007972,0.546903981472,0.0,0.0,0.0,-0.729029999689,0.684481745231
1634830741355055148,0.316892766822,0.545133299914,0.0,0.0,0.0,-0.729211504633,0.684288375987
1634830741376197325,0.31677401268,0.543270784729,0.0,0.0,0.0,-0.729315239327,0.684177814377
1634830741396361029,0.316649239178,0.541318614042,0.0,0.0,0.0,-0.729301602827,0.684192350231
1634830741416977191,0.316518449714,0.539270260423,0.0,0.0,0.0,-0.72929030374,0.684204394074
1634830741435843831,0.316386816837,0.537195189437,0.0,0.0,0.0,-0.729033481768,0.684478036508
1634830741455724931,0.316257155909,0.535141940133,0.0,0.0,0.0,-0.729101844933,0.68440521602
1634830741478160025,0.316141329786,0.533319155517,0.0,0.0,0.0,-0.729301513542,0.684192445402
1634830741504864821,0.316023047462,0.531472288703,0.0,0.0,0.0,-0.729432772722,0.684052505353
1634830741516178395,0.315902570137,0.529604204256,0.0,0.0,0.0,-0.729525169388,0.683953965724
1634830741535612710,0.315779421362,0.527694611172,0.0,0.0,0.0,-0.729466132257,0.684016930996
1634830741554878475,0.315642048674,0.525551297574,0.0,0.0,0.0,-0.729219232468,0.684280140731
1634830741576193911,0.31550987039,0.523463341582,0.0,0.0,0.0,-0.72902897218,0.684482839611
1634830741595024873,0.315390663626,0.521572479458,0.0,0.0,0.0,-0.729007133961,0.684506098318
1634830741614942191,0.315271348061,0.519691600063,0.0,0.0,0.0,-0.729251998811,0.684245220831
1634830741635928685,0.315161964341,0.51798268168,0.0,0.0,0.0,-0.72941962816,0.68406652166
1634830741654868263,0.315043768166,0.516146043044,0.0,0.0,0.0,-0.729448315269,0.68403593133
1634830741675024693,0.314921000123,0.51423783787,0.0,0.0,0.0,-0.729466126397,0.684016937246
1634830741695296444,0.314789176056,0.51218667158,0.0,0.0,0.0,-0.729361484779,0.684128514623
1634830741715610753,0.314658091951,0.510137281197,0.0,0.0,0.0,-0.729311815176,0.684181464412
1634830741736092000,0.314539391553,0.508277896263,0.0,0.0,0.0,-0.729300093909,0.684193958629
1634830741755993528,0.314425460784,0.506507022851,0.0,0.0,0.0,-0.729564053416,0.683912488527
1634830741775804135,0.31431049124,0.504733447629,0.0,0.0,0.0,-0.729657377718,0.683812921157
1634830741796093238,0.314186074755,0.502817608708,0.0,0.0,0.0,-0.729647993983,0.683822933863
1634830741815775271,0.314058977444,0.50086071259,0.0,0.0,0.0,-0.72969566952,0.683772059888
1634830741836106102,0.313920576596,0.498719696289,0.0,0.0,0.0,-0.729426515531,0.684059177587
1634830741854710145,0.313793834992,0.496745904095,0.0,0.0,0.0,-0.729423358407,0.684062544078
1634830741874946388,0.313671689053,0.494849339292,0.0,0.0,0.0,-0.729541421088,0.683936630776
1634830741895739113,0.313550446616,0.492981300817,0.0,0.0,0.0,-0.729749076071,0.683715061976
1634830741915700305,0.313432574356,0.49118110325,0.0,0.0,0.0,-0.729894614646,0.683559691257
1634830741938943559,0.313312605017,0.489353718447,0.0,0.0,0.0,-0.729920777064,0.683531754354
1634830741954784172,0.313178609528,0.48731251497,0.0,0.0,0.0,-0.72985963741,0.683597037501
1634830741976463836,0.313043330293,0.485242173464,0.0,0.0,0.0,-0.72969422161,0.68377360504
1634830741996059235,0.31291725938,0.483299993974,0.0,0.0,0.0,-0.729589389761,0.683885459963
1634830742014920024,0.312795242989,0.481418730493,0.0,0.0,0.0,-0.729716911469,0.683749390578
1634830742035079432,0.312680819445,0.479666916282,0.0,0.0,0.0,-0.729851538619,0.683605684277
1634830742054625128,0.312559002341,0.47781233923,0.0,0.0,0.0,-0.729958094013,0.683491902648
1634830742075655442,0.312438596427,0.475983442304,0.0,0.0,0.0,-0.729956990731,0.683493080932
1634830742095742993,0.312301090799,0.473892454483,0.0,0.0,0.0,-0.729902657015,0.683551103636
1634830742115777223,0.312174119984,0.471948843632,0.0,0.0,0.0,-0.729670684598,0.683798721875
1634830742135718247,0.312043733681,0.469936696655,0.0,0.0,0.0,-0.729586964978,0.683888046784
1634830742154539922,0.311920026809,0.468026478148,0.0,0.0,0.0,-0.729686492557,0.683781853064
1634830742175902857,0.311805115813,0.466264347075,0.0,0.0,0.0,-0.7297922939,0.683668931402
1634830742196064548,0.311679697622,0.464353997546,0.0,0.0,0.0,-0.729984442944,0.683463761337
1634830742215957922,0.311550191886,0.462386579907,0.0,0.0,0.0,-0.729935438097,0.683516097989
1634830742235561837,0.311408529911,0.460223422459,0.0,0.0,0.0,-0.729765566374,0.683697460969
1634830742254475326,0.311269359928,0.45808311695,0.0,0.0,0.0,-0.729638515528,0.683833047358
1634830742275800308,0.311131844881,0.45596434622,0.0,0.0,0.0,-0.729647972762,0.683822956506
1634830742294773230,0.311005386437,0.454027228331,0.0,0.0,0.0,-0.729920359947,0.683532199779
1634830742314625786,0.310884480018,0.45219215998,0.0,0.0,0.0,-0.73000151533,0.683445526443
1634830742334670205,0.310764702321,0.45037925322,0.0,0.0,0.0,-0.730046187722,0.683397807864
1634830742354540174,0.310630812877,0.44834827875,0.0,0.0,0.0,-0.729980354862,0.683468127652
1634830742375060525,0.310499218326,0.446344568295,0.0,0.0,0.0,-0.729812243883,0.683647634881
1634830742395602776,0.310368705093,0.444337852468,0.0,0.0,0.0,-0.729617083074,0.683855914712
1634830742415600447,0.310247868532,0.442478119972,0.0,0.0,0.0,-0.729725496953,0.683740227789
1634830742435594812,0.309362347738,0.441871328328,0.0,0.0,0.0,-0.72995518519,0.68349500921
1634830742454517998,0.309249529275,0.440160117365,0.0,0.0,0.0,-0.730058951271,0.683384172826
1634830742474550015,0.30912443424,0.438270503336,0.0,0.0,0.0,-0.730087849425,0.683353299635
1634830742494676970,0.308992574694,0.436278562257,0.0,0.0,0.0,-0.730085442762,0.683355870881
1634830742524814874,0.30885955144,0.434257957686,0.0,0.0,0.0,-0.729839736819,0.683618284249
1634830742534891647,0.308729435386,0.432267246574,0.0,0.0,0.0,-0.7298198167,0.683639550606
1634830742566474005,0.308600948805,0.430306036886,0.0,0.0,0.0,-0.729921822395,0.683530638079
1634830742577942872,0.308486632222,0.42857521748,0.0,0.0,0.0,-0.730138072934,0.683299637386
1634830742610025307,0.30836396457,0.426732564405,0.0,0.0,0.0,-0.730285652949,0.683141906997
1634830742615490461,0.30824319665,0.424925316559,0.0,0.0,0.0,-0.730278475927,0.683149579226
1634830742639467303,0.308110662606,0.42293510824,0.0,0.0,0.0,-0.730164947767,0.68327091922
1634830742655818473,0.307972415974,0.420846323558,0.0,0.0,0.0,-0.73000113755,0.683445929957
1634830742675795954,0.307843409807,0.418884466505,0.0,0.0,0.0,-0.729944495454,0.683506425395
1634830742694574690,0.307719594476,0.41700698654,0.0,0.0,0.0,-0.73008041177,0.683361245865
1634830742715450602,0.307599294823,0.415197713982,0.0,0.0,0.0,-0.730272612625,0.68315584697
1634830742734246488,0.307474998708,0.4133433096,0.0,0.0,0.0,-0.730435318684,0.682981877665
1634830742764162542,0.307342486363,0.41137055356,0.0,0.0,0.0,-0.73039899638,0.683020721565
1634830742774147431,0.307200355048,0.409252429436,0.0,0.0,0.0,-0.730369984002,0.683051745089
1634830742809846902,0.307059122639,0.407131156002,0.0,0.0,0.0,-0.730088194135,0.68335293135
1634830742814343974,0.306925813509,0.405118522107,0.0,0.0,0.0,-0.730118566417,0.683320480428
1634830742835216410,0.306797865045,0.403195134315,0.0,0.0,0.0,-0.730322686969,0.683102315102
1634830742854646487,0.306671771816,0.401315139717,0.0,0.0,0.0,-0.730444882414,0.682971649306
1634830742880428496,0.306551154537,0.399525189577,0.0,0.0,0.0,-0.730511902775,0.682899963322
1634830742898247512,0.306413177517,0.397477028293,0.0,0.0,0.0,-0.730425911534,0.682991938283
1634830742914278285,0.306280009618,0.395494922274,0.0,0.0,0.0,-0.730366735753,0.683055218343
1634830742934560304,0.306133505985,0.393299640761,0.0,0.0,0.0,-0.73019456642,0.683239266414
1634830742954330985,0.306005533043,0.391378751396,0.0,0.0,0.0,-0.730235447307,0.683195573388
1634830742974431161,0.305888729784,0.38963585074,0.0,0.0,0.0,-0.730482422161,0.682931497966
1634830742995500129,0.305772831356,0.38791860225,0.0,0.0,0.0,-0.730555554903,0.682853264766
1634830743014334307,0.305657499966,0.386212159645,0.0,0.0,0.0,-0.730531973414,0.68287849272
1634830743035335909,0.305523856735,0.384228255234,0.0,0.0,0.0,-0.73047523483,0.682939185652
1634830743054288020,0.30539243553,0.382272770321,0.0,0.0,0.0,-0.730345439455,0.683077989008
1634830743075222655,0.305262534273,0.380325169781,0.0,0.0,0.0,-0.730168604847,0.683267011128
1634830743097109551,0.305143910896,0.378544323904,0.0,0.0,0.0,-0.730245117871,0.683185236832
1634830743115862206,0.305024938425,0.376768862021,0.0,0.0,0.0,-0.730464016407,0.682951184738
1634830743135269609,0.304905145175,0.374994222593,0.0,0.0,0.0,-0.730565405457,0.682842725926
1634830743154117704,0.304782212112,0.373183692084,0.0,0.0,0.0,-0.730719362484,0.682677971881
1634830743175877831,0.304653310475,0.371289033654,0.0,0.0,0.0,-0.730684873865,0.682714885662
1634830743194430445,0.304514436803,0.369240806743,0.0,0.0,0.0,-0.730530148043,0.682880445467
1634830743215049665,0.304376546521,0.367195208542,0.0,0.0,0.0,-0.730496587772,0.682916345721
1634830743235031625,0.30424681049,0.365272051288,0.0,0.0,0.0,-0.730580324624,0.682826763734
1634830743253927991,0.304122761955,0.363445612798,0.0,0.0,0.0,-0.730738495934,0.682657491396
1634830743274041451,0.303999166042,0.361638761861,0.0,0.0,0.0,-0.730942062387,0.68243952218
1634830743295174992,0.303878070893,0.359878886846,0.0,0.0,0.0,-0.730993027268,0.682384931022
1634830743315335040,0.303735077695,0.357802818794,0.0,0.0,0.0,-0.731036306262,0.682338566202
1634830743334113203,0.303588646863,0.35567588816,0.0,0.0,0.0,-0.730857777453,0.682529786263
1634830743354089152,0.303449526555,0.353644637485,0.0,0.0,0.0,-0.730814660155,0.682575953651
1634830743374017312,0.303311694301,0.351631549063,0.0,0.0,0.0,-0.730921227405,0.68246183727
1634830743395228779,0.303185220531,0.349798328115,0.0,0.0,0.0,-0.731095949599,0.682274660588
1634830743415224286,0.30306450391,0.348056307652,0.0,0.0,0.0,-0.731164566422,0.682201126362
1634830743435404513,0.302937480562,0.346229555461,0.0,0.0,0.0,-0.731233994386,0.682126707771
1634830743453994179,0.302786305546,0.344056346622,0.0,0.0,0.0,-0.731207422052,0.682155191973
1634830743474446360,0.302635557703,0.341874120856,0.0,0.0,0.0,-0.730956861654,0.68242367075
1634830743493902336,0.302490873658,0.339765871341,0.0,0.0,0.0,-0.730902477461,0.682481918033
1634830743514230221,0.302360212476,0.337865328172,0.0,0.0,0.0,-0.73108804557,0.682283130104
1634830743534437729,0.302236550425,0.336080314525,0.0,0.0,0.0,-0.731209542365,0.682152919187
1634830743553881972,0.30211307742,0.334313586387,0.0,0.0,0.0,-0.731458091204,0.681886398758
1634830743576961387,0.301975271175,0.332351977134,0.0,0.0,0.0,-0.731442010581,0.681903648001
1634830743595256514,0.301826227567,0.330227535606,0.0,0.0,0.0,-0.73142419163,0.681922760947
1634830743615660876,0.301684414844,0.328201476613,0.0,0.0,0.0,-0.731326980094,0.682027014265
1634830743635531106,0.301541935473,0.326162234171,0.0,0.0,0.0,-0.73127943128,0.682077996557
1634830743655448052,0.301418398993,0.324397324052,0.0,0.0,0.0,-0.731471155682,0.681872384251
1634830743675401971,0.301298478135,0.3226961838,0.0,0.0,0.0,-0.731628661544,0.681703382423
1634830743695153156,0.301179052182,0.321011448226,0.0,0.0,0.0,-0.731713810948,0.681611985566
1634830743718018885,0.301037485304,0.319018699164,0.0,0.0,0.0,-0.731754222702,0.681568600772
1634830743734381585,0.300898430646,0.317060968709,0.0,0.0,0.0,-0.731686207501,0.6816416168
1634830743754928866,0.300746560105,0.314911412027,0.0,0.0,0.0,-0.731507414454,0.681833485977
1634830743773812418,0.300604322799,0.312892110222,0.0,0.0,0.0,-0.731514774855,0.681825589259
1634830743795556565,0.300479897,0.31112956305,0.0,0.0,0.0,-0.731617825274,0.681715012114
1634830743815221886,0.30035906835,0.309424356727,0.0,0.0,0.0,-0.73172062416,0.681604671477
1634830743834144833,0.300228342822,0.307592060933,0.0,0.0,0.0,-0.731912517311,0.681398610949
1634830743855472272,0.300083739751,0.305575114773,0.0,0.0,0.0,-0.731987646198,0.681317903635
1634830743873965664,0.299944097556,0.303624366993,0.0,0.0,0.0,-0.731853674202,0.681461810784
1634830743894830005,0.299787574986,0.301427027339,0.0,0.0,0.0,-0.731752616164,0.681570325599
1634830743913638836,0.299645469081,0.299430508121,0.0,0.0,0.0,-0.731834424277,0.681482483592
1634830743933847637,0.299516047915,0.297622351976,0.0,0.0,0.0,-0.731982889637,0.681323013906
1634830743953604442,0.299383216751,0.295777889859,0.0,0.0,0.0,-0.732093380247,0.681204288447
1634830743973838991,0.29925661882,0.294024088706,0.0,0.0,0.0,-0.732114921233,0.681181137516
1634830743994719292,0.299105246531,0.291932072478,0.0,0.0,0.0,-0.732201201222,0.681088394358
1634830744015093236,0.298956268457,0.289871797509,0.0,0.0,0.0,-0.73211069691,0.681185677676
1634830744034752475,0.298810372473,0.287842486509,0.0,0.0,0.0,-0.731970423137,0.681336407109
1634830744053687005,0.298668395867,0.28586169372,0.0,0.0,0.0,-0.731997768672,0.681307028188
1634830744074943207,0.298541447589,0.284094217366,0.0,0.0,0.0,-0.732012726781,0.68129095681
1634830744094851248,0.298408318432,0.282244408159,0.0,0.0,0.0,-0.732131904973,0.681162883399
1634830744114120019,0.298269667918,0.280326717708,0.0,0.0,0.0,-0.732263400067,0.68102152163
1634830744134987757,0.298125879658,0.278345376532,0.0,0.0,0.0,-0.732256059194,0.681029414764
1634830744153546314,0.297970268912,0.27619511385,0.0,0.0,0.0,-0.732132253713,0.681162508564
1634830744173648553,0.297824901547,0.274179886368,0.0,0.0,0.0,-0.7321028199,0.681194143467
1634830744195579933,0.297683657819,0.272221574324,0.0,0.0,0.0,-0.732118533073,0.681177255589
1634830744213677317,0.297550233811,0.270380436148,0.0,0.0,0.0,-0.732307874322,0.680973697881
1634830744233858907,0.297424486465,0.268658733353,0.0,0.0,0.0,-0.732520430006,0.680745047448
1634830744253620722,0.297296868109,0.266920079436,0.0,0.0,0.0,-0.732570692981,0.68069095762
1634830744274588598,0.297161738317,0.26508404452,0.0,0.0,0.0,-0.73259046835,0.680669674425
1634830744293529108,0.297007475567,0.262985003437,0.0,0.0,0.0,-0.732509214939,0.680757115298
1634830744314836659,0.296867703199,0.261073643672,0.0,0.0,0.0,-0.732350689203,0.680927652562
1634830744334915442,0.296726957877,0.259145478926,0.0,0.0,0.0,-0.732406735711,0.680867368497
1634830744354059577,0.296598366899,0.2573871757,0.0,0.0,0.0,-0.732485537534,0.680782591804
1634830744374625254,0.296479845722,0.255771792197,0.0,0.0,0.0,-0.732547329649,0.680716100753
1634830744397343454,0.296339741913,0.253868601938,0.0,0.0,0.0,-0.73268818685,0.680564486915
1634830744414513823,0.296193489066,0.251889940569,0.0,0.0,0.0,-0.732696090493,0.680555977842
1634830744434004724,0.29604344023,0.249854281866,0.0,0.0,0.0,-0.732574269405,0.680687108594
1634830744453894241,0.295894106709,0.247820842948,0.0,0.0,0.0,-0.732522149698,0.680743196956
1634830744473849802,0.295755159694,0.245926674474,0.0,0.0,0.0,-0.732521781834,0.6807435928
1634830744493673003,0.29562973334,0.244219161369,0.0,0.0,0.0,-0.732606467127,0.680652454872
1634830744514461590,0.295495982329,0.242408689837,0.0,0.0,0.0,-0.732821855536,0.680420552342
1634830744533480428,0.295350047006,0.24044932005,0.0,0.0,0.0,-0.732979377338,0.680250859902
1634830744553425540,0.29520808438,0.238548767182,0.0,0.0,0.0,-0.732962564748,0.680268975243
1634830744574507072,0.295043784173,0.236346073038,0.0,0.0,0.0,-0.732881938996,0.680355835937
1634830744594406998,0.2948968818,0.234368808945,0.0,0.0,0.0,-0.732816175579,0.680426669679
1634830744613560521,0.29475891247,0.232511809699,0.0,0.0,0.0,-0.732845122617,0.680395492531
1634830744634601276,0.294625623196,0.230722685998,0.0,0.0,0.0,-0.732948153422,0.680284502539
1634830744654478969,0.294494335607,0.228966410983,0.0,0.0,0.0,-0.733062778794,0.68016098267
1634830744674591578,0.294349009646,0.227031034716,0.0,0.0,0.0,-0.733177825897,0.680036966358
1634830744694646196,0.29419194582,0.224943512586,0.0,0.0,0.0,-0.733157724084,0.680058638366
1634830744714490026,0.29403706247,0.222879162624,0.0,0.0,0.0,-0.733020019325,0.680207064995
1634830744736053290,0.293900511643,0.221050168541,0.0,0.0,0.0,-0.73296525879,0.680266072509
1634830744753588851,0.293761719473,0.21918909863,0.0,0.0,0.0,-0.73291955956,0.680315308673
1634830744773255956,0.293641339396,0.21757809564,0.0,0.0,0.0,-0.733006473281,0.680221662495
1634830744799170546,0.293502030866,0.215720882585,0.0,0.0,0.0,-0.733132602158,0.680085720812
1634830744814459965,0.2933604237,0.213846957735,0.0,0.0,0.0,-0.733386235357,0.679812201853
1634830744833462604,0.293215731398,0.211938816977,0.0,0.0,0.0,-0.733357472909,0.67984322967
1634830744853111303,0.293054465015,0.209810165612,0.0,0.0,0.0,-0.733269326167,0.679938302571
1634830744873288404,0.292901565434,0.207783215514,0.0,0.0,0.0,-0.733192692497,0.680020937669
1634830744894318178,0.29275152366,0.205787999782,0.0,0.0,0.0,-0.733118428515,0.680100999685
1634830744913498612,0.292617758104,0.204012383607,0.0,0.0,0.0,-0.733247612855,0.679961718218
1634830744934476128,0.292482636573,0.202229257723,0.0,0.0,0.0,-0.733404355386,0.679792653315
1634830744953232970,0.292327663148,0.200194381059,0.0,0.0,0.0,-0.733503398776,0.679685783274
1634830744974468583,0.292175734752,0.19820114556,0.0,0.0,0.0,-0.733455320128,0.679737665115
1634830744993453307,0.292014815822,0.19608153343,0.0,0.0,0.0,-0.733313984718,0.67989013805
1634830745014231075,0.291864897241,0.19409795746,0.0,0.0,0.0,-0.733259578957,0.679948814153
1634830745033085872,0.290817154695,0.184551878927,0.0,0.0,0.0,-0.73295642742,0.680275587908
1634830745054417418,0.290690617536,0.182862310079,0.0,0.0,0.0,-0.733149971535,0.680066996139
1634830745074296173,0.290553269823,0.181041054753,0.0,0.0,0.0,-0.733282998084,0.679923557999
1634830745094157998,0.290407586914,0.1791189669,0.0,0.0,0.0,-0.73337447757,0.679824886017
1634830745112982566,0.290256905855,0.177131419224,0.0,0.0,0.0,-0.733281555047,0.67992511428
1634830745134459259,0.290105509307,0.175122758047,0.0,0.0,0.0,-0.733130571878,0.680087909449
1634830745154106294,0.289963212174,0.173224207177,0.0,0.0,0.0,-0.732985106271,0.680244686848
1634830745174382533,0.28983649083,0.171527623236,0.0,0.0,0.0,-0.73295519123,0.680276919826
1634830745193002035,0.289704764678,0.169765790531,0.0,0.0,0.0,-0.733038069782,0.680187612538
1634830745215870309,0.289567036369,0.16793124907,0.0,0.0,0.0,-0.733206710997,0.680005822732
1634830745234068072,0.289418311307,0.165961346472,0.0,0.0,0.0,-0.733254067549,0.679954757629
1634830745254406679,0.289256502873,0.163823777752,0.0,0.0,0.0,-0.733331314927,0.679871445604
1634830745273175264,0.289102790202,0.16179227965,0.0,0.0,0.0,-0.733261275136,0.679946984982
1634830745293997605,0.288954558474,0.159826889471,0.0,0.0,0.0,-0.733159355884,0.680056879151
1634830745317147002,0.288816539124,0.157995147491,0.0,0.0,0.0,-0.733192917944,0.680020694595
1634830745334218273,0.288685312524,0.156257754303,0.0,0.0,0.0,-0.733309487087,0.67989498906
1634830745352976849,0.288542898625,0.15437929559,0.0,0.0,0.0,-0.733403960283,0.679793079578
1634830745373150082,0.288392704605,0.152404693982,0.0,0.0,0.0,-0.733457854878,0.67973493004
1634830745393549934,0.288220713189,0.150143000926,0.0,0.0,0.0,-0.733370170052,0.679829532808
1634830745414555933,0.288072739291,0.148187644649,0.0,0.0,0.0,-0.73328778104,0.679918399646
1634830745434071372,0.287930114734,0.146298211928,0.0,0.0,0.0,-0.733225467735,0.679985597984
1634830745454315700,0.287791777003,0.144465424695,0.0,0.0,0.0,-0.733254347754,0.67995445546
1634830745474028982,0.287655619077,0.142665525152,0.0,0.0,0.0,-0.733345909422,0.679855703171
1634830745493558617,0.287504510287,0.140681061507,0.0,0.0,0.0,-0.733527559274,0.679659708815
1634830745513024582,0.287351143413,0.138667110603,0.0,0.0,0.0,-0.733441147991,0.679752956915
1634830745534071117,0.287186840333,0.136506361382,0.0,0.0,0.0,-0.733389659176,0.679808508195
1634830745552769269,0.287027494622,0.134404111041,0.0,0.0,0.0,-0.733299597563,0.679905655378
1634830745573005771,0.286884617979,0.132510682447,0.0,0.0,0.0,-0.733197735791,0.680015499993
1634830745593039310,0.286746527106,0.130681753123,0.0,0.0,0.0,-0.733299223031,0.679906059321
1634830745614401934,0.286612090157,0.128911456125,0.0,0.0,0.0,-0.733474017403,0.679717489693
1634830745632953908,0.286462688792,0.126955102742,0.0,0.0,0.0,-0.733532582873,0.67965428702
