%time,field.position.x,field.position.y,field.position.z,field.orientation.x,field.orientation.y,field.orientation.z,field.orientation.w
1634830453782196872,-0.107675322552,-0.9034975577,0.0,0.0,-0.0,-0.949486446391,-0.313808043428
1634830453800006805,-0.107675322552,-0.9034975577,0.0,0.0,-0.0,-0.949486446391,-0.313808043428
1634830453821621699,-0.107675322552,-0.9034975577,0.0,0.0,-0.0,-0.949486446391,-0.313808043428
1634830453839753221,-0.107675322552,-0.9034975577,0.0,0.0,-0.0,-0.949486446391,-0.313808043428
1634830453860786014,-0.107675322552,-0.9034975577,0.0,0.0,-0.0,-0.949486446391,-0.313808043428
1634830453880395112,-0.107675322552,-0.9034975577,0.0,0.0,-0.0,-0.949486446391,-0.313808043428
1634830453900807583,-0.107675322552,-0.9034975577,0.0,0.0,-0.0,-0.949486446391,-0.313808043428
1634830453920035870,-0.107675322552,-0.9034975577,0.0,0.0,-0.0,-0.949486446391,-0.313808043428
1634830453939863832,-0.107675322552,-0.9034975577,0.0,0.0,-0.0,-0.949486446391,-0.313808043428
1634830453959369113,-0.107675322552,-0.9034975577,0.0,0.0,-0.0,-0.949486446391,-0.313808043428
1634830453979656044,-0.107675322552,-0.9034975577,0.0,0.0,-0.0,-0.949486446391,-0.313808043428
1634830453999108496,-0.107675322552,-0.9034975577,0.0,0.0,-0.0,-0.949486446391,-0.313808043428
1634830454019273005,-0.107675322552,-0.9034975577,0.0,0.0,-0.0,-0.949486446391,-0.313808043428
1634830454040579597,-0.107675322552,-0.9034975577,0.0,0.0,-0.0,-0.949486446391,-0.313808043428
1634830454083650437,-0.107675322552,-0.9034975577,0.0,0.0,-0.0,-0.949486446391,-0.313808043428
1634830454083667789,-0.107675322552,-0.9034975577,0.0,0.0,-0.0,-0.949486446391,-0.313808043428
1634830454129364719,-0.107675322552,-0.9034975577,0.0,0.0,-0.0,-0.949486446391,-0.313808043428
1634830454129377153,-0.107675322552,-0.9034975577,0.0,0.0,-0.0,-0.949486446391,-0.313808043428
1634830454176053096,-0.107675322552,-0.9034975577,0.0,0.0,-0.0,-0.949486446391,-0.313808043428
1634830454176204092,-0.107675322552,-0.9034975577,0.0,0.0,-0.0,-0.949486446391,-0.313808043428
1634830454219638138,-0.107675322552,-0.9034975577,0.0,0.0,-0.0,-0.949486446391,-0.313808043428
1634830454219650983,-0.107675322552,-0.9034975577,0.0,0.0,-0.0,-0.949486446391,-0.313808043428
1634830454220301464,-0.107675322552,-0.9034975577,0.0,0.0,-0.0,-0.949486446391,-0.313808043428
1634830454240592423,-0.107675322552,-0.9034975577,0.0,0.0,-0.0,-0.949486446391,-0.313808043428
1634830454259329921,-0.107675322552,-0.9034975577,0.0,0.0,-0.0,-0.949486446391,-0.313808043428
1634830454303762819,-0.107675322552,-0.9034975577,0.0,0.0,-0.0,-0.949486446391,-0.313808043428
1634830454303774861,-0.107675322552,-0.9034975577,0.0,0.0,-0.0,-0.949486446391,-0.313808043428
1634830454352691757,-0.107675322552,-0.9034975577,0.0,0.0,-0.0,-0.949486446391,-0.313808043428
1634830454352703219,-0.107675322552,-0.9034975577,0.0,0.0,-0.0,-0.949486446391,-0.313808043428
1634830454397224413,-0.107675322552,-0.9034975577,0.0,0.0,-0.0,-0.949486446391,-0.313808043428
1634830454397242877,-0.107675322552,-0.9034975577,0.0,0.0,-0.0,-0.949486446391,-0.313808043428
1634830454439969755,-0.107675322552,-0.9034975577,0.0,0.0,-0.0,-0.949486446391,-0.313808043428
1634830454439980265,-0.107675322552,-0.9034975577,0.0,0.0,-0.0,-0.949486446391,-0.313808043428
1634830454440042072,-0.107675322552,-0.9034975577,0.0,0.0,-0.0,-0.949486446391,-0.313808043428
1634830454459728638,-0.107675322552,-0.9034975577,0.0,0.0,-0.0,-0.949486446391,-0.313808043428
1634830454479253967,-0.107675322552,-0.9034975577,0.0,0.0,-0.0,-0.949486446391,-0.313808043428
1634830454523796913,-0.107675322552,-0.9034975577,0.0,0.0,-0.0,-0.949486446391,-0.313808043428
1634830454523814266,-0.107675322552,-0.9034975577,0.0,0.0,-0.0,-0.949486446391,-0.313808043428
1634830454567807481,-0.107675322552,-0.9034975577,0.0,0.0,-0.0,-0.949486446391,-0.313808043428
1634830454567822940,-0.107675322552,-0.9034975577,0.0,0.0,-0.0,-0.949486446391,-0.313808043428
1634830454611869216,-0.107675322552,-0.9034975577,0.0,0.0,-0.0,-0.949486446391,-0.313808043428
1634830454612031593,-0.107675322552,-0.9034975577,0.0,0.0,-0.0,-0.949486446391,-0.313808043428
1634830454659820093,-0.107675322552,-0.9034975577,0.0,0.0,-0.0,-0.949486446391,-0.313808043428
1634830454659833328,-0.107675322552,-0.9034975577,0.0,0.0,-0.0,-0.949486446391,-0.313808043428
1634830454660894937,-0.107675322552,-0.9034975577,0.0,0.0,-0.0,-0.949486446391,-0.313808043428
1634830454679813839,-0.107675322552,-0.9034975577,0.0,0.0,-0.0,-0.949486446391,-0.313808043428
1634830454699359838,-0.107675322552,-0.9034975577,0.0,0.0,-0.0,-0.949486446391,-0.313808043428
1634830454744248147,-0.107675322552,-0.9034975577,0.0,0.0,-0.0,-0.949486446391,-0.313808043428
1634830454744260821,-0.107675322552,-0.9034975577,0.0,0.0,-0.0,-0.949486446391,-0.313808043428
1634830454788180938,-0.107675322552,-0.9034975577,0.0,0.0,-0.0,-0.949486446391,-0.313808043428
1634830454788191147,-0.107675322552,-0.9034975577,0.0,0.0,-0.0,-0.949486446391,-0.313808043428
1634830454832240810,-0.107675322552,-0.9034975577,0.0,0.0,-0.0,-0.949486446391,-0.313808043428
1634830454832396245,-0.107675322552,-0.9034975577,0.0,0.0,-0.0,-0.949486446391,-0.313808043428
1634830454876026652,-0.107675322552,-0.9034975577,0.0,0.0,-0.0,-0.949486446391,-0.313808043428
1634830454876045438,-0.107675322552,-0.9034975577,0.0,0.0,-0.0,-0.949486446391,-0.313808043428
1634830454919008432,-0.107675322552,-0.9034975577,0.0,0.0,-0.0,-0.949486446391,-0.313808043428
1634830454919020014,-0.107675322552,-0.9034975577,0.0,0.0,-0.0,-0.949486446391,-0.313808043428
1634830454920291711,-0.107675322552,-0.9034975577,0.0,0.0,-0.0,-0.949486446391,-0.313808043428
1634830454939911880,-0.107675322552,-0.9034975577,0.0,0.0,-0.0,-0.949486446391,-0.313808043428
1634830454959737599,-0.107675322552,-0.9034975577,0.0,0.0,-0.0,-0.949486446391,-0.313808043428
1634830455003798432,-0.107675322552,-0.9034975577,0.0,0.0,-0.0,-0.949486446391,-0.313808043428
1634830455003808851,-0.107675322552,-0.9034975577,0.0,0.0,-0.0,-0.949486446391,-0.313808043428
1634830455047890824,-0.107675322552,-0.9034975577,0.0,0.0,-0.0,-0.949486446391,-0.313808043428
1634830455047907877,-0.107675322552,-0.9034975577,0.0,0.0,-0.0,-0.949486446391,-0.313808043428
1634830455091863571,-0.107675322552,-0.9034975577,0.0,0.0,-0.0,-0.949486446391,-0.313808043428
1634830455091874953,-0.107675322552,-0.9034975577,0.0,0.0,-0.0,-0.949486446391,-0.313808043428
1634830455136320965,-0.107675322552,-0.9034975577,0.0,0.0,-0.0,-0.949486446391,-0.313808043428
1634830455136333930,-0.107675322552,-0.9034975577,0.0,0.0,-0.0,-0.949486446391,-0.313808043428
1634830455179838559,-0.107675322552,-0.9034975577,0.0,0.0,-0.0,-0.949486446391,-0.313808043428
1634830455179847977,-0.107675322552,-0.9034975577,0.0,0.0,-0.0,-0.949486446391,-0.313808043428
1634830455220702080,-0.107675322552,-0.9034975577,0.0,0.0,-0.0,-0.949486446391,-0.313808043428
1634830455220715275,-0.107675322552,-0.9034975577,0.0,0.0,-0.0,-0.949486446391,-0.313808043428
1634830455222220164,-0.107675322552,-0.9034975577,0.0,0.0,-0.0,-0.949486446391,-0.313808043428
1634830455239208612,-0.107675322552,-0.9034975577,0.0,0.0,-0.0,-0.949486446391,-0.313808043428
1634830455259514408,-0.107675322552,-0.9034975577,0.0,0.0,-0.0,-0.949486446391,-0.313808043428
1634830455304102349,-0.107675322552,-0.9034975577,0.0,0.0,-0.0,-0.949486446391,-0.313808043428
1634830455304118119,-0.107675322552,-0.9034975577,0.0,0.0,-0.0,-0.949486446391,-0.313808043428
1634830455347793753,-0.107675322552,-0.9034975577,0.0,0.0,-0.0,-0.949486446391,-0.313808043428
1634830455347808692,-0.107675322552,-0.9034975577,0.0,0.0,-0.0,-0.949486446391,-0.313808043428
1634830455391791587,-0.107675322552,-0.9034975577,0.0,0.0,-0.0,-0.949486446391,-0.313808043428
1634830455391815092,-0.107675322552,-0.9034975577,0.0,0.0,-0.0,-0.949486446391,-0.313808043428
1634830455435866387,-0.107675322552,-0.9034975577,0.0,0.0,-0.0,-0.949486446391,-0.313808043428
1634830455435880924,-0.107675322552,-0.9034975577,0.0,0.0,-0.0,-0.949486446391,-0.313808043428
1634830455479391447,-0.107675322552,-0.9034975577,0.0,0.0,-0.0,-0.949486446391,-0.313808043428
1634830455479405414,-0.107675322552,-0.9034975577,0.0,0.0,-0.0,-0.949486446391,-0.313808043428
1634830455480060884,-0.107675322552,-0.9034975577,0.0,0.0,-0.0,-0.949486446391,-0.313808043428
1634830455499119741,-0.107675322552,-0.9034975577,0.0,0.0,-0.0,-0.949486446391,-0.313808043428
1634830455523111925,-0.107675322552,-0.9034975577,0.0,0.0,-0.0,-0.949486446391,-0.313808043428
1634830455567959947,-0.107675322552,-0.9034975577,0.0,0.0,-0.0,-0.949486446391,-0.313808043428
1634830455568110643,-0.107675322552,-0.9034975577,0.0,0.0,-0.0,-0.949486446391,-0.313808043428
1634830455618771028,-0.107675322552,-0.9034975577,0.0,0.0,-0.0,-0.949486446391,-0.313808043428
1634830455618799732,-0.107675322552,-0.9034975577,0.0,0.0,-0.0,-0.949486446391,-0.313808043428
1634830455637664854,-0.107675322552,-0.9034975577,0.0,0.0,-0.0,-0.949486446391,-0.313808043428
1634830455643162581,-0.107675322552,-0.9034975577,0.0,0.0,-0.0,-0.949486446391,-0.313808043428
1634830455658934876,-0.107675322552,-0.9034975577,0.0,0.0,-0.0,-0.949486446391,-0.313808043428
1634830455703609159,-0.107675322552,-0.9034975577,0.0,0.0,-0.0,-0.949486446391,-0.313808043428
1634830455703638134,-0.107675322552,-0.9034975577,0.0,0.0,-0.0,-0.949486446391,-0.313808043428
1634830455752459619,-0.107675322552,-0.9034975577,0.0,0.0,-0.0,-0.949486446391,-0.313808043428
1634830455752468936,-0.107675322552,-0.9034975577,0.0,0.0,-0.0,-0.949486446391,-0.313808043428
1634830455796319473,-0.107675322552,-0.9034975577,0.0,0.0,-0.0,-0.949486446391,-0.313808043428
1634830455796331075,-0.107675322552,-0.9034975577,0.0,0.0,-0.0,-0.949486446391,-0.313808043428
1634830455839196434,-0.107675322552,-0.9034975577,0.0,0.0,-0.0,-0.949486446391,-0.313808043428
1634830455839362008,-0.107675322552,-0.9034975577,0.0,0.0,-0.0,-0.949486446391,-0.313808043428
1634830455839830534,-0.107675322552,-0.9034975577,0.0,0.0,-0.0,-0.949486446391,-0.313808043428
1634830455858243488,-0.107675322552,-0.9034975577,0.0,0.0,-0.0,-0.949486446391,-0.313808043428
1634830455879411186,-0.107675322552,-0.9034975577,0.0,0.0,-0.0,-0.949486446391,-0.313808043428
1634830455923874391,-0.107675322552,-0.9034975577,0.0,0.0,-0.0,-0.949486446391,-0.313808043428
1634830455923884791,-0.107675322552,-0.9034975577,0.0,0.0,-0.0,-0.949486446391,-0.313808043428
1634830455982711153,-0.107675322552,-0.9034975577,0.0,0.0,-0.0,-0.949486446391,-0.313808043428
1634830455982725471,-0.107675322552,-0.9034975577,0.0,0.0,-0.0,-0.949486446391,-0.313808043428
1634830456019317586,-0.107675322552,-0.9034975577,0.0,0.0,-0.0,-0.949486446391,-0.313808043428
1634830456019327885,-0.107675322552,-0.9034975577,0.0,0.0,-0.0,-0.949486446391,-0.313808043428
1634830456024481540,-0.107675322552,-0.9034975577,0.0,0.0,-0.0,-0.949486446391,-0.313808043428
1634830456038363739,-0.107675322552,-0.9034975577,0.0,0.0,-0.0,-0.949486446391,-0.313808043428
1634830456059259252,-0.107675322552,-0.9034975577,0.0,0.0,-0.0,-0.949486446391,-0.313808043428
1634830456103749768,-0.107675322552,-0.9034975577,0.0,0.0,-0.0,-0.949486446391,-0.313808043428
1634830456103765017,-0.107675322552,-0.9034975577,0.0,0.0,-0.0,-0.949486446391,-0.313808043428
1634830456147747351,-0.107675322552,-0.9034975577,0.0,0.0,-0.0,-0.949486446391,-0.313808043428
1634830456147778771,-0.107675322552,-0.9034975577,0.0,0.0,-0.0,-0.949486446391,-0.313808043428
1634830456192858954,-0.107675322552,-0.9034975577,0.0,0.0,-0.0,-0.949486446391,-0.313808043428
1634830456192876156,-0.107675322552,-0.9034975577,0.0,0.0,-0.0,-0.949486446391,-0.313808043428
1634830456240087774,-0.107675322552,-0.9034975577,0.0,0.0,-0.0,-0.949486446391,-0.313808043428
1634830456240097111,-0.107675322552,-0.9034975577,0.0,0.0,-0.0,-0.949486446391,-0.313808043428
1634830456240662291,-0.107675322552,-0.9034975577,0.0,0.0,-0.0,-0.949486446391,-0.313808043428
1634830456258641734,-0.107675322552,-0.9034975577,0.0,0.0,-0.0,-0.949486446391,-0.313808043428
1634830456280331010,-0.107675322552,-0.9034975577,0.0,0.0,-0.0,-0.949486446391,-0.313808043428
1634830456324364691,-0.107675322552,-0.9034975577,0.0,0.0,-0.0,-0.949486446391,-0.313808043428
1634830456324377806,-0.107675322552,-0.9034975577,0.0,0.0,-0.0,-0.949486446391,-0.313808043428
1634830456371542766,-0.107675322552,-0.9034975577,0.0,0.0,-0.0,-0.949486446391,-0.313808043428
1634830456371552885,-0.107675322552,-0.9034975577,0.0,0.0,-0.0,-0.949486446391,-0.313808043428
1634830456415829927,-0.107675322552,-0.9034975577,0.0,0.0,-0.0,-0.949486446391,-0.313808043428
1634830456415843834,-0.107675322552,-0.9034975577,0.0,0.0,-0.0,-0.949486446391,-0.313808043428
1634830456458145366,-0.107675322552,-0.9034975577,0.0,0.0,-0.0,-0.949486446391,-0.313808043428
1634830456458161556,-0.107675322552,-0.9034975577,0.0,0.0,-0.0,-0.949486446391,-0.313808043428
1634830456459128397,-0.107675322552,-0.9034975577,0.0,0.0,-0.0,-0.949486446391,-0.313808043428
1634830456479486433,-0.107675322552,-0.9034975577,0.0,0.0,-0.0,-0.949486446391,-0.313808043428
1634830456498198703,-0.107675322552,-0.9034975577,0.0,0.0,-0.0,-0.949486446391,-0.313808043428
1634830456558228063,-0.107675322552,-0.9034975577,0.0,0.0,-0.0,-0.949486446391,-0.313808043428
1634830456558245496,-0.107675322552,-0.9034975577,0.0,0.0,-0.0,-0.949486446391,-0.313808043428
1634830456579742338,-0.107675322552,-0.9034975577,0.0,0.0,-0.0,-0.949486446391,-0.313808043428
1634830456582176776,-0.107675322552,-0.9034975577,0.0,0.0,-0.0,-0.949486446391,-0.313808043428
1634830456598789492,-0.107675322552,-0.9034975577,0.0,0.0,-0.0,-0.949486446391,-0.313808043428
1634830456656498310,-0.107675322552,-0.9034975577,0.0,0.0,-0.0,-0.949486446391,-0.313808043428
1634830456656512226,-0.107675322552,-0.9034975577,0.0,0.0,-0.0,-0.949486446391,-0.313808043428
1634830456698038822,-0.107675322552,-0.9034975577,0.0,0.0,-0.0,-0.949486446391,-0.313808043428
1634830456698051296,-0.107675322552,-0.9034975577,0.0,0.0,-0.0,-0.949486446391,-0.313808043428
1634830456700720869,-0.107675322552,-0.9034975577,0.0,0.0,-0.0,-0.949486446391,-0.313808043428
1634830456744687955,-0.107675322552,-0.9034975577,0.0,0.0,-0.0,-0.949486446391,-0.313808043428
1634830456744712140,-0.107675322552,-0.9034975577,0.0,0.0,-0.0,-0.949486446391,-0.313808043428
1634830456760838937,-0.107675322552,-0.9034975577,0.0,0.0,-0.0,-0.949486446391,-0.313808043428
1634830456778864628,-0.107675322552,-0.9034975577,0.0,0.0,-0.0,-0.949486446391,-0.313808043428
1634830456825105988,-0.107675322552,-0.9034975577,0.0,0.0,-0.0,-0.949486446391,-0.313808043428
1634830456825112591,-0.107675322552,-0.9034975577,0.0,0.0,-0.0,-0.949486446391,-0.313808043428
1634830456878628010,-0.107675322552,-0.9034975577,0.0,0.0,-0.0,-0.949486446391,-0.313808043428
1634830456878638931,-0.107675322552,-0.9034975577,0.0,0.0,-0.0,-0.949486446391,-0.313808043428
1634830456881544321,-0.107675322552,-0.9034975577,0.0,0.0,-0.0,-0.949486446391,-0.313808043428
1634830456899233786,-0.107675322552,-0.9034975577,0.0,0.0,-0.0,-0.949486446391,-0.313808043428
1634830456918570578,-0.107675322552,-0.9034975577,0.0,0.0,-0.0,-0.949486446391,-0.313808043428
1634830456960658867,-0.107675322552,-0.9034975577,0.0,0.0,-0.0,-0.949486446391,-0.313808043428
1634830456960668125,-0.107675322552,-0.9034975577,0.0,0.0,-0.0,-0.949486446391,-0.313808043428
1634830457003831790,-0.107675322552,-0.9034975577,0.0,0.0,-0.0,-0.949486446391,-0.313808043428
1634830457003840877,-0.107675322552,-0.9034975577,0.0,0.0,-0.0,-0.949486446391,-0.313808043428
1634830457048126796,-0.107675322552,-0.9034975577,0.0,0.0,-0.0,-0.949486446391,-0.313808043428
1634830457048137797,-0.107675322552,-0.9034975577,0.0,0.0,-0.0,-0.949486446391,-0.313808043428
1634830457095735224,-0.107675322552,-0.9034975577,0.0,0.0,-0.0,-0.949486446391,-0.313808043428
1634830457095748159,-0.107675322552,-0.9034975577,0.0,0.0,-0.0,-0.949486446391,-0.313808043428
1634830457139085172,-0.107675322552,-0.9034975577,0.0,0.0,-0.0,-0.949486446391,-0.313808043428
1634830457139093367,-0.107675322552,-0.9034975577,0.0,0.0,-0.0,-0.949486446391,-0.313808043428
1634830457140157962,-0.107675322552,-0.9034975577,0.0,0.0,-0.0,-0.949486446391,-0.313808043428
1634830457162611635,-0.107675322552,-0.9034975577,0.0,0.0,-0.0,-0.949486446391,-0.313808043428
1634830457179706133,-0.107675322552,-0.9034975577,0.0,0.0,-0.0,-0.949486446391,-0.313808043428
1634830457240436289,-0.107675322552,-0.9034975577,0.0,0.0,-0.0,-0.949486446391,-0.313808043428
1634830457240450356,-0.107675322552,-0.9034975577,0.0,0.0,-0.0,-0.949486446391,-0.313808043428
1634830457257540857,-0.107675322552,-0.9034975577,0.0,0.0,-0.0,-0.949486446391,-0.313808043428
1634830457258863651,-0.107675322552,-0.9034975577,0.0,0.0,-0.0,-0.949486446391,-0.313808043428
1634830457277581232,-0.107675322552,-0.9034975577,0.0,0.0,-0.0,-0.949486446391,-0.313808043428
1634830457320388452,-0.107675322552,-0.9034975577,0.0,0.0,-0.0,-0.949486446391,-0.313808043428
1634830457320396327,-0.107675322552,-0.9034975577,0.0,0.0,-0.0,-0.949486446391,-0.313808043428
1634830457366411158,-0.107675322552,-0.9034975577,0.0,0.0,-0.0,-0.949486446391,-0.313808043428
1634830457366423391,-0.107675322552,-0.9034975577,0.0,0.0,-0.0,-0.949486446391,-0.313808043428
1634830457407918107,-0.107675322552,-0.9034975577,0.0,0.0,-0.0,-0.949486446391,-0.313808043428
1634830457407934478,-0.107675322552,-0.9034975577,0.0,0.0,-0.0,-0.949486446391,-0.313808043428
1634830457452027342,-0.107675322552,-0.9034975577,0.0,0.0,-0.0,-0.949486446391,-0.313808043428
1634830457452041969,-0.107675322552,-0.9034975577,0.0,0.0,-0.0,-0.949486446391,-0.313808043428
1634830457496668944,-0.107675322552,-0.9034975577,0.0,0.0,-0.0,-0.949486446391,-0.313808043428
1634830457496682580,-0.107675322552,-0.9034975577,0.0,0.0,-0.0,-0.949486446391,-0.313808043428
1634830457537476299,-0.107675322552,-0.9034975577,0.0,0.0,-0.0,-0.949486446391,-0.313808043428
1634830457537488502,-0.107675322552,-0.9034975577,0.0,0.0,-0.0,-0.949486446391,-0.313808043428
1634830457538535944,-0.107675322552,-0.9034975577,0.0,0.0,-0.0,-0.949486446391,-0.313808043428
1634830457558534540,-0.107675322552,-0.9034975577,0.0,0.0,-0.0,-0.949486446391,-0.313808043428
1634830457579819971,-0.107675322552,-0.9034975577,0.0,0.0,-0.0,-0.949486446391,-0.313808043428
1634830457624073619,-0.107675322552,-0.9034975577,0.0,0.0,-0.0,-0.949486446391,-0.313808043428
1634830457624088347,-0.107675322552,-0.9034975577,0.0,0.0,-0.0,-0.949486446391,-0.313808043428
1634830457667712744,-0.107675322552,-0.9034975577,0.0,0.0,-0.0,-0.949486446391,-0.313808043428
1634830457667720829,-0.107675322552,-0.9034975577,0.0,0.0,-0.0,-0.949486446391,-0.313808043428
1634830457712907624,-0.107675322552,-0.9034975577,0.0,0.0,-0.0,-0.949486446391,-0.313808043428
1634830457712918855,-0.107675322552,-0.9034975577,0.0,0.0,-0.0,-0.949486446391,-0.313808043428
1634830457758390448,-0.107675322552,-0.9034975577,0.0,0.0,-0.0,-0.949486446391,-0.313808043428
1634830457758417419,-0.107675322552,-0.9034975577,0.0,0.0,-0.0,-0.949486446391,-0.313808043428
1634830457759036351,-0.107675322552,-0.9034975577,0.0,0.0,-0.0,-0.949486446391,-0.313808043428
1634830457778396939,-0.107675322552,-0.9034975577,0.0,0.0,-0.0,-0.949486446391,-0.313808043428
1634830457797742679,-0.107675322552,-0.9034975577,0.0,0.0,-0.0,-0.949486446391,-0.313808043428
1634830457839913584,-0.107675322552,-0.9034975577,0.0,0.0,-0.0,-0.949486446391,-0.313808043428
1634830457839923473,-0.107675322552,-0.9034975577,0.0,0.0,-0.0,-0.949486446391,-0.313808043428
1634830457883888865,-0.107675322552,-0.9034975577,0.0,0.0,-0.0,-0.949486446391,-0.313808043428
1634830457883899656,-0.107675322552,-0.9034975577,0.0,0.0,-0.0,-0.949486446391,-0.313808043428
1634830457927745181,-0.107675322552,-0.9034975577,0.0,0.0,-0.0,-0.949486446391,-0.313808043428
1634830457927759188,-0.107675322552,-0.9034975577,0.0,0.0,-0.0,-0.949486446391,-0.313808043428
1634830457973916660,-0.107675322552,-0.9034975577,0.0,0.0,-0.0,-0.949486446391,-0.313808043428
1634830457973930326,-0.107675322552,-0.9034975577,0.0,0.0,-0.0,-0.949486446391,-0.313808043428
1634830458016346825,-0.107675322552,-0.9034975577,0.0,0.0,-0.0,-0.949486446391,-0.313808043428
1634830458016358277,-0.107675322552,-0.9034975577,0.0,0.0,-0.0,-0.949486446391,-0.313808043428
1634830458057916123,-0.107675322552,-0.9034975577,0.0,0.0,-0.0,-0.949486446391,-0.313808043428
1634830458057924208,-0.107675322552,-0.9034975577,0.0,0.0,-0.0,-0.949486446391,-0.313808043428
1634830458059158414,-0.107675322552,-0.9034975577,0.0,0.0,-0.0,-0.949486446391,-0.313808043428
1634830458077814398,-0.107675322552,-0.9034975577,0.0,0.0,-0.0,-0.949486446391,-0.313808043428
1634830458097992253,-0.107675322552,-0.9034975577,0.0,0.0,-0.0,-0.949486446391,-0.313808043428
1634830458140567715,-0.107675322552,-0.9034975577,0.0,0.0,-0.0,-0.949486446391,-0.313808043428
1634830458140579978,-0.107675322552,-0.9034975577,0.0,0.0,-0.0,-0.949486446391,-0.313808043428
1634830458185931694,-0.107675322552,-0.9034975577,0.0,0.0,-0.0,-0.949486446391,-0.313808043428
1634830458185941913,-0.107688253752,-0.903487961135,0.0,0.0,-0.0,-0.949473912277,-0.313845965252
1634830458230732508,-0.107759314914,-0.903435206245,0.0,0.0,-0.0,-0.949429980991,-0.31397883877
1634830458230747175,-0.107843262147,-0.903372847822,0.0,0.0,-0.0,-0.949386006119,-0.314111781673
1634830458276375466,-0.107933535736,-0.903305772637,0.0,0.0,-0.0,-0.949398350945,-0.314074467639
1634830458276387659,-0.108075329353,-0.903200465868,0.0,0.0,-0.0,-0.949460652433,-0.313886077235
1634830458317280796,-0.108320269093,-0.903018838923,0.0,0.0,-0.0,-0.949622700711,-0.313395479059
1634830458317290404,-0.108520329734,-0.902870720248,0.0,0.0,-0.0,-0.949690997365,-0.313188456881
1634830458318691857,-0.108810819705,-0.902655898298,0.0,0.0,-0.0,-0.949808964354,-0.312830515189
1634830458337073230,-0.109037060616,-0.902488746485,0.0,0.0,-0.0,-0.949789822879,-0.312888626119
1634830458357356836,-0.109276149607,-0.902312047495,0.0,0.0,-0.0,-0.949795598055,-0.312871094726
1634830458401213162,-0.109534610267,-0.90212108149,0.0,0.0,-0.0,-0.949820039396,-0.312796887392
1634830458401228902,-0.10978675846,-0.901934743195,0.0,0.0,-0.0,-0.949763432184,-0.312968725092
1634830458455654945,-0.110084078671,-0.901714806778,0.0,0.0,-0.0,-0.949687982298,-0.313197599416
1634830458455664533,-0.110361841917,-0.901509210575,0.0,0.0,-0.0,-0.949668718673,-0.31325600517
1634830458497684323,-0.110736557961,-0.901231705693,0.0,0.0,-0.0,-0.94958055363,-0.313523160495
1634830458497711935,-0.111065903617,-0.900987477136,0.0,0.0,-0.0,-0.94949865446,-0.313771103161
1634830458498802350,-0.111543577574,-0.900632644595,0.0,0.0,-0.0,-0.949335011951,-0.314265866876
1634830458518558145,-0.112149768611,-0.900181798517,0.0,0.0,-0.0,-0.949283717605,-0.314420774585
1634830458539052378,-0.112620499906,-0.899831122959,0.0,0.0,-0.0,-0.94912602517,-0.314896472425
1634830458584644820,-0.113168134858,-0.899422487468,0.0,0.0,-0.0,-0.949018214749,-0.315221236713
1634830458584654719,-0.113760587201,-0.898979511308,0.0,0.0,-0.0,-0.948828418608,-0.315792070898
1634830458629171345,-0.114500433885,-0.898425432878,0.0,0.0,-0.0,-0.948732524186,-0.316080049279
1634830458629191583,-0.115272011278,-0.897846512008,0.0,0.0,-0.0,-0.948592333672,-0.316500528434
1634830458672364677,-0.116081704467,-0.897237844258,0.0,0.0,-0.0,-0.948401339187,-0.317072388941
1634830458672374726,-0.116864967859,-0.896647510367,0.0,0.0,-0.0,-0.948210050499,-0.31764398331
1634830458716806811,-0.117737199732,-0.895988579582,0.0,0.0,-0.0,-0.948081641716,-0.318027043882
1634830458716816990,-0.118660153564,-0.89528987898,0.0,0.0,-0.0,-0.947889498837,-0.318599274944
1634830458758577208,-0.119601524401,-0.894575594927,0.0,0.0,-0.0,-0.947703333388,-0.319152615352
1634830458758588649,-0.120458959551,-0.893923482351,0.0,0.0,-0.0,-0.947510638338,-0.319724240926
1634830458759536914,-0.121283661549,-0.893294834069,0.0,0.0,-0.0,-0.947349574961,-0.320201159931
1634830458777431197,-0.122069352756,-0.892694539421,0.0,0.0,-0.0,-0.947188348072,-0.320677771721
1634830458799891312,-0.122873539176,-0.892078508879,0.0,0.0,-0.0,-0.946969222366,-0.321324278402
1634830458843815766,-0.123549526827,-0.891559454113,0.0,0.0,-0.0,-0.946762744516,-0.321932144397
1634830458843831536,-0.124212028117,-0.891049751033,0.0,0.0,-0.0,-0.946684391311,-0.322162479578
1634830458888610358,-0.12475969271,-0.890627723622,0.0,0.0,-0.0,-0.946541941363,-0.322580770103
1634830458888619506,-0.125370603872,-0.890156493489,0.0,0.0,-0.0,-0.946489264556,-0.322735297233
1634830458931945118,-0.125866821683,-0.889773598476,0.0,0.0,-0.0,-0.946488263144,-0.322738234069
1634830458931956229,-0.126337536179,-0.889410476257,0.0,0.0,-0.0,-0.94653875888,-0.322590108244
1634830458982353235,-0.12687195936,-0.888998540565,0.0,0.0,-0.0,-0.946627654058,-0.322329155637
1634830458982373944,-0.127317444831,-0.888655599712,0.0,0.0,-0.0,-0.946742328887,-0.321992178
1634830459017653745,-0.127826890498,-0.888264172851,0.0,0.0,-0.0,-0.946895212607,-0.321542308789
1634830459017670156,-0.128374941721,-0.887843806193,0.0,0.0,-0.0,-0.947035006417,-0.321130342106
1634830459019251610,-0.128910586419,-0.887433723929,0.0,0.0,-0.0,-0.947187429586,-0.320680484649
1634830459039076576,-0.129484988155,-0.886994531665,0.0,0.0,-0.0,-0.947237399268,-0.320532852337
1634830459057285825,-0.130040475333,-0.886570210736,0.0,0.0,-0.0,-0.947268226656,-0.320441736932
1634830459099815750,-0.130679009788,-0.886082337711,0.0,0.0,-0.0,-0.947254178206,-0.320483263014
1634830459099828986,-0.131330263306,-0.885583901548,0.0,0.0,-0.0,-0.947061089244,-0.321053411818
1634830459147846678,-0.131974666722,-0.885089710588,0.0,0.0,-0.0,-0.946861259763,-0.321642277631
1634830459147854603,-0.132701228235,-0.884530809751,0.0,0.0,-0.0,-0.946615933762,-0.322363574165
1634830459192449798,-0.13338880508,-0.884000095728,0.0,0.0,-0.0,-0.946318610789,-0.32323534286
1634830459192466289,-0.134138826341,-0.883419142225,0.0,0.0,-0.0,-0.946110751623,-0.323843242424
1634830459235800997,-0.13491357264,-0.882817465016,0.0,0.0,-0.0,-0.945863645689,-0.324564267541
1634830459235818811,-0.135706413645,-0.882200492019,0.0,0.0,-0.0,-0.945790853773,-0.324776324445
1634830459277179253,-0.136517937073,-0.881568561594,0.0,0.0,-0.0,-0.945789200033,-0.32478114031
1634830459277191426,-0.137323082776,-0.880941702466,0.0,0.0,-0.0,-0.945832860872,-0.324653968549
1634830459278241584,-0.13812836593,-0.880315228889,0.0,0.0,-0.0,-0.945928235144,-0.324375976233
1634830459297022193,-0.139022886953,-0.879620408951,0.0,0.0,-0.0,-0.946062096148,-0.323985354965
1634830459319000386,-0.139924434453,-0.878921510488,0.0,0.0,-0.0,-0.946189333541,-0.323613573716
1634830459363750163,-0.140877425272,-0.87818404964,0.0,0.0,-0.0,-0.946316321963,-0.323242043657
1634830459363764901,-0.141652965363,-0.877584601465,0.0,0.0,-0.0,-0.946366279608,-0.323095751784
1634830459409559606,-0.142339639379,-0.877054082693,0.0,0.0,-0.0,-0.946403521,-0.32298664901
1634830459409573192,-0.143140888574,-0.876434708454,0.0,0.0,-0.0,-0.946298858451,-0.323293164935
1634830459454867991,-0.143935350891,-0.875819457845,0.0,0.0,-0.0,-0.946136050216,-0.323769322948
1634830459454882348,-0.144564022181,-0.875331971043,0.0,0.0,-0.0,-0.946128322134,-0.323791905483
1634830459497585671,-0.145199105515,-0.874839299911,0.0,0.0,-0.0,-0.946036651765,-0.324059644999
1634830459497593616,-0.145878322006,-0.874312039386,0.0,0.0,-0.0,-0.946015894935,-0.324120234683
1634830459498289634,-0.146430491483,-0.873883723993,0.0,0.0,-0.0,-0.946124535177,-0.323802970857
1634830459517306140,-0.147065441152,-0.873391613369,0.0,0.0,-0.0,-0.9462135588,-0.323542734649
1634830459536498419,-0.147738842461,-0.872870202391,0.0,0.0,-0.0,-0.946250877455,-0.323433574193
1634830459580543803,-0.14843788137,-0.872329716529,0.0,0.0,-0.0,-0.946365431314,-0.323098236476
1634830459580559783,-0.149092638973,-0.871824259107,0.0,0.0,-0.0,-0.946563549011,-0.322517360284
1634830459625057503,-0.149818132175,-0.871265232523,0.0,0.0,-0.0,-0.946626346165,-0.322332996675
1634830459625072622,-0.150480196681,-0.870755856055,0.0,0.0,-0.0,-0.946766253469,-0.321921824815
1634830459669377938,-0.151091663824,-0.870285663256,0.0,0.0,-0.0,-0.946790684957,-0.321849963303
1634830459669392445,-0.151773362926,-0.869761353359,0.0,0.0,-0.0,-0.946705894057,-0.322099286179
1634830459711815588,-0.152359362879,-0.869310086345,0.0,0.0,-0.0,-0.946563395052,-0.322517812141
1634830459711831748,-0.152989426774,-0.868824085608,0.0,0.0,-0.0,-0.946478531002,-0.322766773928
1634830459757020556,-0.153612920297,-0.868342172583,0.0,0.0,-0.0,-0.946258339675,-0.323411741586
1634830459757046525,-0.154261118909,-0.867840031851,0.0,0.0,-0.0,-0.946128038761,-0.323792733505
1634830459757101058,-0.154788218231,-0.867431053125,0.0,0.0,-0.0,-0.946043045634,-0.324040978593
1634830459777866005,-0.155365983362,-0.866982613135,0.0,0.0,-0.0,-0.945983733525,-0.324214089617
1634830459796763326,-0.155968953903,-0.866514226044,0.0,0.0,-0.0,-0.945924338122,-0.324387340301
1634830459839812544,-0.156432032223,-0.866154340625,0.0,0.0,-0.0,-0.945968642566,-0.324258118298
1634830459839825749,-0.156983998653,-0.865725711292,0.0,0.0,-0.0,-0.946064416014,-0.323978580698
1634830459883892002,-0.157383860903,-0.86541558975,0.0,0.0,-0.0,-0.946147512544,-0.323735825183
1634830459883902011,-0.157961844167,-0.864967692729,0.0,0.0,-0.0,-0.946152792543,-0.323720393492
1634830459929822795,-0.158501606756,-0.864549865721,0.0,0.0,-0.0,-0.946325759853,-0.323214412176
1634830459929833815,-0.159130820542,-0.864063393948,0.0,0.0,-0.0,-0.946395323319,-0.323010668554
1634830459972331379,-0.159785712452,-0.863557900491,0.0,0.0,-0.0,-0.946541967028,-0.322580694796
1634830459972355355,-0.160491948238,-0.863013666368,0.0,0.0,-0.0,-0.946675471175,-0.322188690483
1634830460017134487,-0.161256024916,-0.862425669873,0.0,0.0,-0.0,-0.946725291604,-0.322042267781
1634830460017157110,-0.162039409184,-0.8618230514,0.0,0.0,-0.0,-0.946730134049,-0.32202803183
1634830460056605814,-0.162816496286,-0.861225452158,0.0,0.0,-0.0,-0.946741406636,-0.32199488965
1634830460056621393,-0.163561798508,-0.860652297155,0.0,0.0,-0.0,-0.94672065393,-0.322055901084
1634830460058457168,-0.164370640504,-0.860029583507,0.0,0.0,-0.0,-0.946609855128,-0.322381423431
1634830460076349386,-0.165153560294,-0.859426151505,0.0,0.0,-0.0,-0.946563292413,-0.322518113378
1634830460096381585,-0.165980831735,-0.858788254046,0.0,0.0,-0.0,-0.946548767991,-0.322560738179
1634830460145589440,-0.166737999041,-0.858204534372,0.0,0.0,-0.0,-0.946617934251,-0.322357699698
1634830460145599259,-0.167482641185,-0.857630995077,0.0,0.0,-0.0,-0.946712761745,-0.322079100143
1634830460189106484,-0.168119435881,-0.857141537449,0.0,0.0,-0.0,-0.946865430877,-0.321629998306
1634830460189119268,-0.168724652424,-0.85667758375,0.0,0.0,-0.0,-0.947177861555,-0.320708744158
1634830460236058249,-0.16934371013,-0.856204797475,0.0,0.0,-0.0,-0.947374588998,-0.320127143679
1634830460236072596,-0.170059142903,-0.855659273978,0.0,0.0,-0.0,-0.947487945663,-0.319791483349
1634830460283142685,-0.170781474497,-0.855109255019,0.0,0.0,-0.0,-0.947531113617,-0.319663555519
1634830460283153075,-0.171440065155,-0.854607848307,0.0,0.0,-0.0,-0.947497944257,-0.319761857682
1634830460283413067,-0.172008977188,-0.854174575741,0.0,0.0,-0.0,-0.947515929218,-0.319708560847
1634830460296878436,-0.172597186707,-0.853726192615,0.0,0.0,-0.0,-0.94737448712,-0.320127445175
1634830460319394898,-0.173248901187,-0.853228464988,0.0,0.0,-0.0,-0.947207175334,-0.320622156121
1634830460363847834,-0.173734096701,-0.85285728615,0.0,0.0,-0.0,-0.947129498214,-0.320851544507
1634830460363862171,-0.174148872312,-0.852539979562,0.0,0.0,-0.0,-0.947160636976,-0.320759610554
1634830460408016069,-0.174621177016,-0.852178400175,0.0,0.0,-0.0,-0.947082952107,-0.320988912314
1634830460408026048,-0.175048615504,-0.851851143518,0.0,0.0,-0.0,-0.947101286962,-0.320934809946
1634830460451954771,-0.175476065753,-0.851523743939,0.0,0.0,-0.0,-0.947081241037,-0.32099396081
1634830460451966803,-0.175929039609,-0.851176861066,0.0,0.0,-0.0,-0.947073936762,-0.321015511005
1634830460495930613,-0.176426545386,-0.850795799285,0.0,0.0,-0.0,-0.947111321305,-0.320905196368
1634830460495946553,-0.17694338588,-0.850400257104,0.0,0.0,-0.0,-0.947129472687,-0.320851619862
1634830460536642116,-0.177555878135,-0.849931717166,0.0,0.0,-0.0,-0.947230513543,-0.320553200285
1634830460536659148,-0.178194266437,-0.849443652915,0.0,0.0,-0.0,-0.947216460206,-0.320594724713
1634830460541383881,-0.178902878745,-0.848902411022,0.0,0.0,-0.0,-0.947323612326,-0.320277962916
1634830460555928292,-0.179656483103,-0.84832743411,0.0,0.0,-0.0,-0.947436946062,-0.319942546774
1634830460576571408,-0.180423303614,-0.847743126283,0.0,0.0,-0.0,-0.947511910208,-0.319720471684
1634830460621734708,-0.181184059287,-0.84716424998,0.0,0.0,-0.0,-0.947618668317,-0.319403912713
1634830460621744276,-0.181938786703,-0.84659064197,0.0,0.0,-0.0,-0.947706253436,-0.319143944325
1634830460663798069,-0.18265541499,-0.84604626554,0.0,0.0,-0.0,-0.947717552003,-0.31911039097
1634830460663814971,-0.183429692316,-0.84545798441,0.0,0.0,-0.0,-0.947671487022,-0.319247165508
1634830460707921471,-0.184190985738,-0.844878861317,0.0,0.0,-0.0,-0.947549016763,-0.319610482982
1634830460707937672,-0.184875055063,-0.844357753511,0.0,0.0,-0.0,-0.947490311827,-0.319784472723
1634830460752634438,-0.185552613414,-0.843841332574,0.0,0.0,-0.0,-0.947425210711,-0.319977296242
1634830460752645930,-0.18621716849,-0.843334786236,0.0,0.0,-0.0,-0.947462143486,-0.319867920649
1634830460798436407,-0.186837019651,-0.842862617034,0.0,0.0,-0.0,-0.94755649248,-0.31958831887
1634830460798448270,-0.187457181828,-0.842390750435,0.0,0.0,-0.0,-0.94762530066,-0.319384234972
1634830460801189018,-0.188020011161,-0.841962939295,0.0,0.0,-0.0,-0.947687817717,-0.319198684445
1634830460817204142,-0.18865335837,-0.841481808212,0.0,0.0,-0.0,-0.947743800717,-0.319032425001
1634830460866926703,-0.189280510512,-0.841005673333,0.0,0.0,-0.0,-0.947767987517,-0.318960564705
1634830460866940278,-0.18987570271,-0.840554230979,0.0,0.0,-0.0,-0.947874821316,-0.318642939848
1634830460878041883,-0.190503158915,-0.840078762405,0.0,0.0,-0.0,-0.947962450978,-0.318382147012
1634830460924310124,-0.191124606538,-0.83960843054,0.0,0.0,-0.0,-0.94799294487,-0.318291338991
1634830460924324271,-0.191758917717,-0.839128624219,0.0,0.0,-0.0,-0.9480614484,-0.318087236552
1634830460935925541,-0.192354994142,-0.838677764843,0.0,0.0,-0.0,-0.948028569152,-0.318185216615
1634830460956598553,-0.1929702727,-0.838212145281,0.0,0.0,-0.0,-0.94795122886,-0.318415558198
1634830461001134595,-0.193591740066,-0.837741520628,0.0,0.0,-0.0,-0.947905568289,-0.318551461474
1634830461001145015,-0.194174572648,-0.837299792976,0.0,0.0,-0.0,-0.947872666416,-0.318649350011
1634830461046795838,-0.194725297501,-0.836882085312,0.0,0.0,-0.0,-0.947808049982,-0.318841497284
1634830461046809975,-0.195320684145,-0.836430474649,0.0,0.0,-0.0,-0.947813224788,-0.318826113919
1634830461088659732,-0.195839137252,-0.836037313952,0.0,0.0,-0.0,-0.9478947711,-0.318583588595
1634830461088669531,-0.196415538124,-0.835600483082,0.0,0.0,-0.0,-0.947880930857,-0.318624765074
1634830461136405992,-0.197023948202,-0.835139661702,0.0,0.0,-0.0,-0.947936863844,-0.318458320923
1634830461136423485,-0.197670852502,-0.834649810925,0.0,0.0,-0.0,-0.947992691634,-0.318292093223
1634830461136478920,-0.198330774131,-0.834150210395,0.0,0.0,-0.0,-0.947972354848,-0.318352657352
1634830461155838285,-0.199054778753,-0.833602448728,0.0,0.0,-0.0,-0.948028012218,-0.318186875986
1634830461177962474,-0.199785332843,-0.833050105477,0.0,0.0,-0.0,-0.948102640735,-0.317964436111
1634830461222801990,-0.200528877164,-0.832488402376,0.0,0.0,-0.0,-0.948202519165,-0.317666464469
1634830461222813702,-0.201279289521,-0.831922167355,0.0,0.0,-0.0,-0.948232691834,-0.317576387877
1634830461263859488,-0.202055543903,-0.831336763823,0.0,0.0,-0.0,-0.948250149662,-0.317524256815
1634830461263884525,-0.202786901891,-0.830784952691,0.0,0.0,-0.0,-0.948198070879,-0.317679741848
1634830461318883674,-0.203428292378,-0.830300627587,0.0,0.0,-0.0,-0.948133473967,-0.317872483148
1634830461318978173,-0.204031011297,-0.829845256597,0.0,0.0,-0.0,-0.948106941229,-0.317951612662
1634830461319932620,-0.204678520217,-0.82935588603,0.0,0.0,-0.0,-0.948086651496,-0.31801210866
1634830461336835315,-0.205229822377,-0.828938940606,0.0,0.0,-0.0,-0.94802216424,-0.318204299326
1634830461361648403,-0.205774559812,-0.828526982017,0.0,0.0,-0.0,-0.948040112212,-0.318150822153
1634830461403953884,-0.20633209674,-0.828105304792,0.0,0.0,-0.0,-0.94805803186,-0.318097419396
1634830461403967179,-0.206774415446,-0.827770639738,0.0,0.0,-0.0,-0.947974710365,-0.318345643142
1634830461448792438,-0.207293354245,-0.827377960823,0.0,0.0,-0.0,-0.948018088187,-0.318216442803
1634830461448807387,-0.207806018038,-0.826989960525,0.0,0.0,-0.0,-0.947979016015,-0.318332821423
1634830461496478133,-0.208363449314,-0.82656824998,0.0,0.0,-0.0,-0.94802231614,-0.318203846773
1634830461496492881,-0.208959308885,-0.826117529311,0.0,0.0,-0.0,-0.948090876734,-0.31799951172
1634830461496653845,-0.209619592444,-0.825618620027,0.0,0.0,-0.0,-0.948121258093,-0.317908917699
1634830461517248019,-0.210286369679,-0.825115002353,0.0,0.0,-0.0,-0.948157952085,-0.317799461766
1634830461536089824,-0.211023739782,-0.824558164429,0.0,0.0,-0.0,-0.948188162665,-0.317709313969
1634830461583330897,-0.211786896243,-0.823982137315,0.0,0.0,-0.0,-0.948218314134,-0.317619314182
1634830461583345425,-0.212543827253,-0.823411120651,0.0,0.0,-0.0,-0.94822948292,-0.317585969024
1634830461630888960,-0.213268694972,-0.822864182041,0.0,0.0,-0.0,-0.948209064885,-0.317646925485
1634830461630900392,-0.213967788992,-0.822336396092,0.0,0.0,-0.0,-0.948176028901,-0.317745524308
1634830461678402398,-0.214641163612,-0.821827834803,0.0,0.0,-0.0,-0.948130363225,-0.317881761556
1634830461678412838,-0.215314446606,-0.821318992603,0.0,0.0,-0.0,-0.948046642602,-0.318131361943
1634830461687852516,-0.215968111513,-0.82082430747,0.0,0.0,-0.0,-0.947994616211,-0.318286361058
1634830461696538027,-0.216570479851,-0.820368207099,0.0,0.0,-0.0,-0.947904579859,-0.318554402705
1634830461717473256,-0.21713408764,-0.819941422039,0.0,0.0,-0.0,-0.947966934429,-0.318368797511
1634830461764390215,-0.217678614382,-0.819529025581,0.0,0.0,-0.0,-0.947946820753,-0.31842868122
1634830461764406436,-0.218216752287,-0.819121423134,0.0,0.0,-0.0,-0.94790767184,-0.318545201922
1634830461810666492,-0.218767556284,-0.81870424473,0.0,0.0,-0.0,-0.947944667302,-0.318435091869
1634830461810681079,-0.219356808107,-0.818257922539,0.0,0.0,-0.0,-0.947968884799,-0.318362990081
1634830461856360365,-0.220010306368,-0.81776328298,0.0,0.0,-0.0,-0.94798028235,-0.318329050318
1634830461856368731,-0.220574167791,-0.817336726723,0.0,0.0,-0.0,-0.948017227386,-0.318219007257
1634830461861370318,-0.221272552177,-0.816808374219,0.0,0.0,-0.0,-0.948072911992,-0.318053067186
1634830461876185082,-0.221964769232,-0.816285055393,0.0,0.0,-0.0,-0.948096898041,-0.317981559097
1634830461903813309,-0.2226378777,-0.815776514299,0.0,0.0,-0.0,-0.948139922777,-0.317853247326
1634830461955994984,-0.223317500585,-0.815263079402,0.0,0.0,-0.0,-0.948138582468,-0.317857245371
1634830461956008269,-0.223965120925,-0.814773696663,0.0,0.0,-0.0,-0.948080275372,-0.318031117111
1634830461977706231,-0.22464457,-0.814259819044,0.0,0.0,-0.0,-0.94802821474,-0.318186272578
1634830461977713705,-0.225247021487,-0.813803828509,0.0,0.0,-0.0,-0.947938206688,-0.318454323729
1634830461995433528,-0.22589404005,-0.813313809804,0.0,0.0,-0.0,-0.947917884879,-0.31851480896
1634830462015654334,-0.226464038988,-0.812881861904,0.0,0.0,-0.0,-0.947910408928,-0.318537056942
1634830462060088984,-0.227014883423,-0.812464471266,0.0,0.0,-0.0,-0.947883922123,-0.318615866179
1634830462060101308,-0.227591273214,-0.812027785118,0.0,0.0,-0.0,-0.947908178713,-0.318543693595
1634830462107947376,-0.228199670455,-0.811566681198,0.0,0.0,-0.0,-0.947900626048,-0.318566167596
1634830462107961532,-0.228827350886,-0.81109092428,0.0,0.0,-0.0,-0.947848579285,-0.318720992009
1634830462152283369,-0.229480515191,-0.810595843823,0.0,0.0,-0.0,-0.947859989654,-0.318687056552
1634830462152297446,-0.230197628406,-0.81005231876,0.0,0.0,-0.0,-0.947922066115,-0.318502365097
1634830462195832663,-0.230895733456,-0.809523490965,0.0,0.0,-0.0,-0.947952419524,-0.318412013464
1634830462195843213,-0.23167730036,-0.808931815796,0.0,0.0,-0.0,-0.947976255354,-0.318341042414
1634830462236667600,-0.232394893506,-0.808388765025,0.0,0.0,-0.0,-0.948000212479,-0.318269692462
1634830462236680525,-0.233163822054,-0.807806968226,0.0,0.0,-0.0,-0.948011378817,-0.318236430399
1634830462238047202,-0.233836696405,-0.807297851535,0.0,0.0,-0.0,-0.947991020264,-0.318297071145
1634830462255564901,-0.234483847931,-0.806808008443,0.0,0.0,-0.0,-0.947970708488,-0.318357559747
1634830462276573378,-0.235162908197,-0.80629377653,0.0,0.0,-0.0,-0.947956675407,-0.318399342887
1634830462320927627,-0.23573953818,-0.805857035597,0.0,0.0,-0.0,-0.947892058958,-0.318591658026
1634830462320941733,-0.236309592149,-0.805424947882,0.0,0.0,-0.0,-0.947833769351,-0.318765032081
1634830462363851859,-0.23682817307,-0.805031371843,0.0,0.0,-0.0,-0.947775549533,-0.318938093848
1634830462363867428,-0.237314729739,-0.804662032116,0.0,0.0,-0.0,-0.947711001518,-0.319129844424
1634830462408212779,-0.237749781171,-0.804331692497,0.0,0.0,-0.0,-0.947773722518,-0.318943523065
1634830462408224541,-0.238178682834,-0.804006037464,0.0,0.0,-0.0,-0.947715647833,-0.319116046058
1634830462451786369,-0.238639360748,-0.803656243841,0.0,0.0,-0.0,-0.947765602073,-0.318967652791
1634830462451798712,-0.239138612602,-0.803277366443,0.0,0.0,-0.0,-0.947777325768,-0.318932815433
1634830462497341240,-0.239676200297,-0.802869463011,0.0,0.0,-0.0,-0.947839805153,-0.318747084326
1634830462497349366,-0.24025242528,-0.802432347077,0.0,0.0,-0.0,-0.947813250154,-0.31882603851
1634830462502955037,-0.24091830984,-0.801927496606,0.0,0.0,-0.0,-0.947837345225,-0.318754399181
1634830462516399115,-0.241622582378,-0.80139374202,0.0,0.0,-0.0,-0.947924853515,-0.318494069158
1634830462535120814,-0.242384693083,-0.800816332041,0.0,0.0,-0.0,-0.947955079471,-0.31840409436
1634830462582456525,-0.24316623024,-0.80022461758,0.0,0.0,-0.0,-0.947978914708,-0.318333123111
1634830462582465342,-0.243973526017,-0.79961357047,0.0,0.0,-0.0,-0.947977319103,-0.318337874696
1634830462624230289,-0.244723151539,-0.79904608158,0.0,0.0,-0.0,-0.947956802068,-0.318398965785
1634830462624242813,-0.245479094775,-0.798473332862,0.0,0.0,-0.0,-0.947866429636,-0.318667901692
1634830462668270363,-0.246228376679,-0.79790517798,0.0,0.0,-0.0,-0.947795061132,-0.318880106144
1634830462668283868,-0.246958231834,-0.797351168426,0.0,0.0,-0.0,-0.947691880957,-0.319186620598
1634830462715755908,-0.247591667965,-0.796869571192,0.0,0.0,-0.0,-0.947607893066,-0.319435879324
1634830462715769544,-0.248224804821,-0.796388110332,0.0,0.0,-0.0,-0.947651190838,-0.319307407531
1634830462757146707,-0.248832556977,-0.795926103489,0.0,0.0,-0.0,-0.947630890823,-0.319367648263
1634830462757159741,-0.249465795822,-0.795444670763,0.0,0.0,-0.0,-0.947648726585,-0.31931472093
1634830462758690469,-0.250022289663,-0.795021617915,0.0,0.0,-0.0,-0.947666711794,-0.319261340218
1634830462776453744,-0.250636449748,-0.794554789043,0.0,0.0,-0.0,-0.947652765898,-0.319302732977
1634830462796805247,-0.251269746406,-0.794073432368,0.0,0.0,-0.0,-0.947670598033,-0.319249804422
1634830462843101551,-0.251871063399,-0.793616635853,0.0,0.0,-0.0,-0.94774572977,-0.319026694342
1634830462843114065,-0.252498171114,-0.793140389424,0.0,0.0,-0.0,-0.947757201842,-0.318992611758
1634830462891352686,-0.253163839073,-0.792635306455,0.0,0.0,-0.0,-0.947794020941,-0.318883197846
1634830462891366662,-0.253784726542,-0.792164447701,0.0,0.0,-0.0,-0.947875379048,-0.318641280745
1634830462935355168,-0.254482685745,-0.791635215039,0.0,0.0,-0.0,-0.947854943885,-0.318702063616
1634830462935365167,-0.255097437616,-0.791168900318,0.0,0.0,-0.0,-0.947777478015,-0.318932362997
1634830462935998205,-0.255673587489,-0.790731579269,0.0,0.0,-0.0,-0.947725472987,-0.319086865683
1634830462956904589,-0.256223895546,-0.79031342868,0.0,0.0,-0.0,-0.947686217774,-0.319203434571
1634830462975348422,-0.256742203384,-0.78991944007,0.0,0.0,-0.0,-0.947615186809,-0.319414241587
1634830463020174683,-0.25728585102,-0.789506044372,0.0,0.0,-0.0,-0.947633203033,-0.319360787369
1634830463020187638,-0.257708033625,-0.789184855007,0.0,0.0,-0.0,-0.947581433216,-0.319514361844
1634830463063769545,-0.258238796005,-0.788780959194,0.0,0.0,-0.0,-0.947574010073,-0.31953637576
1634830463063781287,-0.258635322357,-0.788479131774,0.0,0.0,-0.0,-0.947522262669,-0.319689789868
1634830463111798949,-0.259178677084,-0.788065351162,0.0,0.0,-0.0,-0.947540294437,-0.319636340892
1634830463111969812,-0.259664645296,-0.787695237497,0.0,0.0,-0.0,-0.947475605155,-0.319828043856
1634830463155053045,-0.260271814306,-0.787232782132,0.0,0.0,-0.0,-0.947531749433,-0.319661670858
1634830463155065328,-0.260917471854,-0.786740971519,0.0,0.0,-0.0,-0.947511350587,-0.319722130151
1634830463155952948,-0.261569554641,-0.78624441448,0.0,0.0,-0.0,-0.947510053273,-0.319725974776
1634830463175214368,-0.262362304584,-0.785641103372,0.0,0.0,-0.0,-0.947584915815,-0.319504033338
1634830463194854024,-0.263116866206,-0.785066959361,0.0,0.0,-0.0,-0.94759615088,-0.319470710454
1634830463235964522,-0.263941858778,-0.784439645885,0.0,0.0,-0.0,-0.94766452731,-0.31926782437
1634830463235974361,-0.264786306339,-0.783797852411,0.0,0.0,-0.0,-0.947675576278,-0.319235026471
1634830463279849272,-0.265598855071,-0.783180407344,0.0,0.0,-0.0,-0.947667600815,-0.319258701314
1634830463279865012,-0.26635377863,-0.782606368278,0.0,0.0,-0.0,-0.947589720093,-0.319489784461
1634830463327001476,-0.267165971216,-0.781988084051,0.0,0.0,-0.0,-0.947492550729,-0.319777838997
1634830463327009662,-0.267952187389,-0.781388741604,0.0,0.0,-0.0,-0.94739534473,-0.320065713228
1634830463372203691,-0.268584787604,-0.780905888273,0.0,0.0,-0.0,-0.947272815592,-0.320428171109
1634830463372219471,-0.269312774313,-0.780349742757,0.0,0.0,-0.0,-0.947245814561,-0.320507982421
1634830463415537588,-0.269938439658,-0.779871603,0.0,0.0,-0.0,-0.947257339903,-0.320473917815
1634830463415551915,-0.270500289169,-0.779442241652,0.0,0.0,-0.0,-0.947256218021,-0.320477233857
1634830463416221863,-0.271119643273,-0.778968997824,0.0,0.0,-0.0,-0.947248594015,-0.320499767764
1634830463435824709,-0.271719810519,-0.778510533195,0.0,0.0,-0.0,-0.94728571456,-0.320390035723
1634830463455755706,-0.272300859545,-0.778066726252,0.0,0.0,-0.0,-0.947316477243,-0.32029906641
1634830463514731802,-0.27296505895,-0.77755966077,0.0,0.0,-0.0,-0.947340683651,-0.320227464625
1634830463514751479,-0.273552719874,-0.777111404617,0.0,0.0,-0.0,-0.947403314891,-0.320042120562
1634830463516335087,-0.274172402412,-0.776639014131,0.0,0.0,-0.0,-0.947497715292,-0.319762536136
1634830463536076806,-0.274856345875,-0.776118164592,0.0,0.0,-0.0,-0.947540955629,-0.319634380825
1634830463554686602,-0.275450982225,-0.775665460552,0.0,0.0,-0.0,-0.947520660265,-0.319694539164
1634830463597590186,-0.276090321634,-0.77517858992,0.0,0.0,-0.0,-0.947493899136,-0.319773843676
1634830463597606296,-0.276723125995,-0.774696321596,0.0,0.0,-0.0,-0.947448018382,-0.319909756751
1634830463644397056,-0.277336720244,-0.77422816735,0.0,0.0,-0.0,-0.947293667309,-0.320366521155
1634830463644437412,-0.277956233071,-0.773754814261,0.0,0.0,-0.0,-0.947209394593,-0.320615599738
1634830463687790725,-0.278486021788,-0.773349694947,0.0,0.0,-0.0,-0.94721472573,-0.320599849282
1634830463687805082,-0.279015925306,-0.772944461727,0.0,0.0,-0.0,-0.947156145378,-0.320772873343
1634830463731805741,-0.279609458071,-0.77249041734,0.0,0.0,-0.0,-0.947161351532,-0.320757500558
1634830463731862539,-0.280139159399,-0.772085078192,0.0,0.0,-0.0,-0.947141112484,-0.320817258017
1634830463776055984,-0.280732619578,-0.771630833376,0.0,0.0,-0.0,-0.947120742021,-0.320877390968
1634830463776064991,-0.281364348725,-0.77114726301,0.0,0.0,-0.0,-0.947100291137,-0.320937748681
1634830463778764340,-0.28191941511,-0.770722391771,0.0,0.0,-0.0,-0.947131157472,-0.320846646463
1634830463794331718,-0.282570250638,-0.770224253853,0.0,0.0,-0.0,-0.947142643944,-0.32081273669
1634830463817386007,-0.283310515386,-0.769657971583,0.0,0.0,-0.0,-0.947179520074,-0.320703845863
1634830463859757592,-0.284025387877,-0.76911160841,0.0,0.0,-0.0,-0.947267538299,-0.3204437718
1634830463859768813,-0.284810761726,-0.768511796584,0.0,0.0,-0.0,-0.947323433955,-0.320278490506
1634830463903753532,-0.285570763787,-0.767931613952,0.0,0.0,-0.0,-0.947353829284,-0.320188572784
1634830463903766226,-0.286298944737,-0.767375881394,0.0,0.0,-0.0,-0.947365139365,-0.320155107279
1634830463947785971,-0.287014433489,-0.766829690866,0.0,0.0,-0.0,-0.947299886359,-0.320348131419
1634830463947793335,-0.287742568103,-0.766273474779,0.0,0.0,-0.0,-0.947209011965,-0.32061673015
1634830463991754950,-0.288521427824,-0.765677659593,0.0,0.0,-0.0,-0.94709237528,-0.320961107746
1634830463991772844,-0.289229673633,-0.765135146556,0.0,0.0,-0.0,-0.947007767335,-0.321210660792
1634830464035346935,-0.289880206662,-0.764636297313,0.0,0.0,-0.0,-0.946942427118,-0.321403235396
1634830464035360862,-0.290505035308,-0.764156906575,0.0,0.0,-0.0,-0.946915548555,-0.321482416168
1634830464038757501,-0.291129668918,-0.763677472449,0.0,0.0,-0.0,-0.946939921119,-0.321410618665
1634830464054341921,-0.291741686524,-0.763207890971,0.0,0.0,-0.0,-0.94693869367,-0.321414234953
1634830464074658678,-0.292328188673,-0.762758067012,0.0,0.0,-0.0,-0.946988752158,-0.321266716743
1634830464115744590,-0.292927580608,-0.762298536485,0.0,0.0,-0.0,-0.947013159477,-0.321194762999
1634830464115752766,-0.293546187928,-0.761824316906,0.0,0.0,-0.0,-0.947005518401,-0.321217291125
1634830464159814791,-0.294100977746,-0.761399348315,0.0,0.0,-0.0,-0.947100393273,-0.320937447273
1634830464159824780,-0.294700655284,-0.760940348876,0.0,0.0,-0.0,-0.9471631379,-0.320752225564
1634830464204067176,-0.295345229296,-0.760447594249,0.0,0.0,-0.0,-0.947257696863,-0.32047286271
1634830464204080200,-0.29597087595,-0.75996964138,0.0,0.0,-0.0,-0.947320299667,-0.320287760987
1634830464252078277,-0.296596772092,-0.759491803782,0.0,0.0,-0.0,-0.94733181709,-0.320253693702
1634830464252095029,-0.297241980778,-0.75899924585,0.0,0.0,-0.0,-0.947273070527,-0.320427417451
1634830464295586904,-0.297886983102,-0.758506364886,0.0,0.0,-0.0,-0.947201512192,-0.320638886133
1634830464295596362,-0.298499742555,-0.75803754068,0.0,0.0,-0.0,-0.947149152406,-0.32079352097
1634830464296992184,-0.29911240329,-0.757568429175,0.0,0.0,-0.0,-0.947058381621,-0.321061398803
1634830464316313718,-0.299692840941,-0.757123506503,0.0,0.0,-0.0,-0.947012418392,-0.32119694801
1634830464335406739,-0.300171189311,-0.756756682076,0.0,0.0,-0.0,-0.946953831244,-0.321369633743
1634830464393772991,-0.300744985812,-0.756316593948,0.0,0.0,-0.0,-0.946978297508,-0.321297531967
1634830464393785174,-0.301267898963,-0.755915369975,0.0,0.0,-0.0,-0.946900380087,-0.321527090912
1634830464436106153,-0.301847952627,-0.755470262886,0.0,0.0,-0.0,-0.946931251964,-0.321436158597
1634830464436120851,-0.302447121559,-0.755010547022,0.0,0.0,-0.0,-0.946981288305,-0.321288716889
1634830464475324369,-0.303052897045,-0.754545951427,0.0,0.0,-0.0,-0.946960862342,-0.321348915032
1634830464475332544,-0.303620372409,-0.754110851611,0.0,0.0,-0.0,-0.946991742668,-0.321257901567
1634830464477807960,-0.304283473138,-0.753602561104,0.0,0.0,-0.0,-0.947067219462,-0.321035327995
1634830464494144265,-0.304997909026,-0.753055521598,0.0,0.0,-0.0,-0.947129753486,-0.320850790962
1634830464514689024,-0.305725350853,-0.752499033056,0.0,0.0,-0.0,-0.947192226041,-0.320666317108
1634830464558237035,-0.306484899762,-0.751918257304,0.0,0.0,-0.0,-0.947222658182,-0.320576411838
1634830464558251092,-0.307180684107,-0.751386379835,0.0,0.0,-0.0,-0.94725320928,-0.320486126859
1634830464603300596,-0.3078639026,-0.750864157001,0.0,0.0,-0.0,-0.947194343557,-0.320660062267
1634830464603317317,-0.308559741338,-0.750331875406,0.0,0.0,-0.0,-0.947109840468,-0.32090956684
1634830464649759619,-0.309261605552,-0.749794219104,0.0,0.0,-0.0,-0.94701885799,-0.321177960968
1634830464649776400,-0.309912197114,-0.749295393484,0.0,0.0,-0.0,-0.946940713839,-0.321408283144
1634830464693813618,-0.310530635858,-0.748820901383,0.0,0.0,-0.0,-0.946920254699,-0.321468554045
1634830464693824298,-0.311180818194,-0.748321647815,0.0,0.0,-0.0,-0.9468676827,-0.321623368954
1634830464726462439,-0.311811743295,-0.747836923551,0.0,0.0,-0.0,-0.946821536641,-0.321759192181
1634830464726615810,-0.312404346531,-0.747381666645,0.0,0.0,-0.0,-0.946826758803,-0.321743824827
1634830464734645248,-0.312984100875,-0.746936222412,0.0,0.0,-0.0,-0.946870471827,-0.321615157576
1634830464753900807,-0.313627767417,-0.746441966879,0.0,0.0,-0.0,-0.946888407532,-0.321562348046
1634830464801300550,-0.314246042486,-0.745967419563,0.0,0.0,-0.0,-0.946906391452,-0.321509386841
1634830464801316380,-0.314883407492,-0.74547833584,0.0,0.0,-0.0,-0.946969171237,-0.321324429086
1634830464844910209,-0.31554009225,-0.744974909966,0.0,0.0,-0.0,-0.947051075812,-0.321082948477
1634830464844922322,-0.316190679072,-0.744476605523,0.0,0.0,-0.0,-0.947100955021,-0.320935789525
1634830464888250958,-0.316835042684,-0.743983364652,0.0,0.0,-0.0,-0.947144430619,-0.3208074618
1634830464888267410,-0.317492308339,-0.743480486224,0.0,0.0,-0.0,-0.94717508029,-0.320716958201
1634830464932941714,-0.318188059107,-0.7429483536,0.0,0.0,-0.0,-0.947154512023,-0.32077769616
1634830464932955951,-0.318864630344,-0.742430534551,0.0,0.0,-0.0,-0.947063618001,-0.321045952255
1634830464976608632,-0.319502624532,-0.741941427856,0.0,0.0,-0.0,-0.946921482356,-0.321464937828
1634830464976619222,-0.320133772459,-0.741456993763,0.0,0.0,-0.0,-0.946875359023,-0.321600768773
1634830464979799282,-0.320732797419,-0.740996774333,0.0,0.0,-0.0,-0.946848515128,-0.321679793272
1634830464995506544,-0.321338218911,-0.740531454306,0.0,0.0,-0.0,-0.946763922717,-0.321928679432
1634830465014101532,-0.321962509746,-0.740051468656,0.0,0.0,-0.0,-0.946762667676,-0.321932370373
1634830465059317400,-0.322529356598,-0.739615655587,0.0,0.0,-0.0,-0.946819258267,-0.321765896539
1634830465059332729,-0.323115525257,-0.739165081256,0.0,0.0,-0.0,-0.946792426197,-0.321844841028
1634830465103721543,-0.323714416434,-0.73870479301,0.0,0.0,-0.0,-0.946791222696,-0.321848381424
1634830465103733296,-0.324306833508,-0.738249504424,0.0,0.0,-0.0,-0.946847747332,-0.321682053235
1634830465149612291,-0.324950409914,-0.737755131529,0.0,0.0,-0.0,-0.946865686768,-0.321629244971
1634830465149625887,-0.325581337317,-0.737270936982,0.0,0.0,-0.0,-0.946947720213,-0.32138764006
1634830465192128279,-0.326231586345,-0.736772455428,0.0,0.0,-0.0,-0.947061651195,-0.321051754139
1634830465192139380,-0.326914167976,-0.73624982246,0.0,0.0,-0.0,-0.947105065907,-0.320923657796
1634830465238922185,-0.327647907164,-0.735688314326,0.0,0.0,-0.0,-0.947161147374,-0.320758103414
1634830465238932644,-0.328362736096,-0.735141524481,0.0,0.0,-0.0,-0.947159718255,-0.320762323402
1634830465242133022,-0.329000889748,-0.734653153462,0.0,0.0,-0.0,-0.947145655751,-0.320803844727
1634830465255845218,-0.329664619608,-0.734144892961,0.0,0.0,-0.0,-0.947029180994,-0.321147521156
1634830465273817349,-0.330340648335,-0.733626418553,0.0,0.0,-0.0,-0.946950993109,-0.321377996524
1634830465315893004,-0.330965490646,-0.733146940238,0.0,0.0,-0.0,-0.946898487079,-0.321532665787
1634830465315905518,-0.331558356662,-0.732691814853,0.0,0.0,-0.0,-0.946852430807,-0.321668267436
1634830465359879235,-0.332189276315,-0.732207136149,0.0,0.0,-0.0,-0.946819104667,-0.321766348517
1634830465359893271,-0.332756314235,-0.731771255822,0.0,0.0,-0.0,-0.946798725156,-0.321826310366
1634830465404387935,-0.333367956772,-0.731301185912,0.0,0.0,-0.0,-0.946797496119,-0.321829926114
1634830465404400959,-0.333922180137,-0.730875268225,0.0,0.0,-0.0,-0.946841272033,-0.321701112177
1634830465448053830,-0.334521144758,-0.730415022906,0.0,0.0,-0.0,-0.946827245168,-0.321742393549
1634830465448068097,-0.335120131285,-0.729954964067,0.0,0.0,-0.0,-0.94685168863,-0.321670452076
1634830465491853689,-0.335750959397,-0.729470640165,0.0,0.0,-0.0,-0.946933732589,-0.321428850735
1634830465491988555,-0.336426653725,-0.728952309554,0.0,0.0,-0.0,-0.946996419967,-0.321244113673
1634830465533628705,-0.337108990509,-0.728429409697,0.0,0.0,-0.0,-0.947052659631,-0.321078276883
1634830465533644976,-0.337759579131,-0.727931107603,0.0,0.0,-0.0,-0.947102538114,-0.320931117685
1634830465534746390,-0.338435868889,-0.727413448552,0.0,0.0,-0.0,-0.947139555479,-0.320821854692
1634830465553744995,-0.339074069181,-0.726925138484,0.0,0.0,-0.0,-0.947125490365,-0.320863375132
1634830465573655192,-0.339712226397,-0.726436666568,0.0,0.0,-0.0,-0.947085837881,-0.320980397665
1634830465616115775,-0.340362981404,-0.725937895998,0.0,0.0,-0.0,-0.946969324626,-0.321323977035
1634830465616126476,-0.340994258716,-0.72545352513,0.0,0.0,-0.0,-0.946897591725,-0.321535302549
1634830465661844635,-0.341580634701,-0.725003062673,0.0,0.0,-0.0,-0.946832313477,-0.321727478087
1634830465661855826,-0.342179634283,-0.724542599651,0.0,0.0,-0.0,-0.946754138141,-0.321957453577
1634830465703892026,-0.342752893336,-0.724101759047,0.0,0.0,-0.0,-0.946765818058,-0.321923105349
1634830465703904710,-0.343287922009,-0.723690294279,0.0,0.0,-0.0,-0.946777573558,-0.321888530718
1634830465755958915,-0.343829434204,-0.723273999991,0.0,0.0,-0.0,-0.946770069648,-0.321910601284
1634830465755971328,-0.344415424713,-0.722823720288,0.0,0.0,-0.0,-0.946871495341,-0.321612144221
1634830465757268343,-0.345014447716,-0.722363550961,0.0,0.0,-0.0,-0.946857472356,-0.321653426911
1634830465775500224,-0.34560079661,-0.721913316534,0.0,0.0,-0.0,-0.946856295162,-0.321656892218
1634830465797255073,-0.3462125155,-0.721443872735,0.0,0.0,-0.0,-0.946983205439,-0.321283066183
1634830465843698035,-0.347596401663,-0.720383749709,0.0,0.0,-0.0,-0.947153184905,-0.320781614693
1634830465888434537,-0.348272819014,-0.719866310191,0.0,0.0,-0.0,-0.94720296627,-0.320634590599
1634830465888446540,-0.348987711925,-0.719319815251,0.0,0.0,-0.0,-0.947252648319,-0.320487784873
1634830465931867011,-0.349670898233,-0.71879744469,0.0,0.0,-0.0,-0.947168216128,-0.320737229453
1634830465932019199,-0.350353913385,-0.718274744805,0.0,0.0,-0.0,-0.947058126182,-0.32106215229
1634830465973726116,-0.351055650811,-0.717736870309,0.0,0.0,-0.0,-0.946954291475,-0.321368277614
1634830465973741846,-0.351661419001,-0.717272054405,0.0,0.0,-0.0,-0.946882599859,-0.321579449102
1634830465974745105,-0.352222324744,-0.716841408198,0.0,0.0,-0.0,-0.946868655064,-0.321620506275
1634830465993405558,-0.352821367328,-0.716381264358,0.0,0.0,-0.0,-0.946854631715,-0.321661788841
1634830466013477602,-0.353394949109,-0.71594063309,0.0,0.0,-0.0,-0.946815008587,-0.321778401254
1634830466060467920,-0.35396835162,-0.715500137052,0.0,0.0,-0.0,-0.946865149396,-0.321630826974
1634830466060486195,-0.354561005511,-0.715044946088,0.0,0.0,-0.0,-0.946870369475,-0.321615458912
1634830466103696938,-0.355166488461,-0.714580127329,0.0,0.0,-0.0,-0.946888381949,-0.321562423381
1634830466103707678,-0.355740104837,-0.714139857136,0.0,0.0,-0.0,-0.946925676745,-0.321452582383
1634830466148718810,-0.356422139497,-0.713616510574,0.0,0.0,-0.0,-0.946969145672,-0.321324504427
1634830466148734990,-0.357078866127,-0.71311319206,0.0,0.0,-0.0,-0.947063847885,-0.321045274112
1634830466191784228,-0.357748581927,-0.712600455102,0.0,0.0,-0.0,-0.947171227226,-0.320728337249
1634830466191796732,-0.358482516048,-0.71203904337,0.0,0.0,-0.0,-0.947188934879,-0.320676038461
1634830466235840753,-0.359165480015,-0.711516804499,0.0,0.0,-0.0,-0.94720674168,-0.320623437252
1634830466235853176,-0.359835831701,-0.711004370788,0.0,0.0,-0.0,-0.947186230439,-0.320684026523
1634830466236581114,-0.360480495931,-0.71051125885,0.0,0.0,-0.0,-0.947165766359,-0.320744463768
