%time,field.position.x,field.position.y,field.position.z,field.orientation.x,field.orientation.y,field.orientation.z,field.orientation.w
1634830732769312505,-0.245920636713,-0.746700783897,0.0,0.0,0.0,0.952817280993,0.303544443272
1634830732779113837,-0.245920636713,-0.746700783897,0.0,0.0,0.0,0.952817280993,0.303544443272
1634830732799517526,-0.245920636713,-0.746700783897,0.0,0.0,0.0,0.952817280993,0.303544443272
1634830732818957412,-0.245920636713,-0.746700783897,0.0,0.0,0.0,0.952817280993,0.303544443272
1634830732839863461,-0.245920636713,-0.746700783897,0.0,0.0,0.0,0.952817280993,0.303544443272
1634830732858909462,-0.245920636713,-0.746700783897,0.0,0.0,0.0,0.952817280993,0.303544443272
1634830732879202361,-0.245920636713,-0.746700783897,0.0,0.0,0.0,0.952817280993,0.303544443272
1634830732900190907,-0.245920636713,-0.746700783897,0.0,0.0,0.0,0.952817280993,0.303544443272
1634830732919159571,-0.245920636713,-0.746700783897,0.0,0.0,0.0,0.952817280993,0.303544443272
1634830732939639935,-0.245920636713,-0.746700783897,0.0,0.0,0.0,0.952817280993,0.303544443272
1634830732958724237,-0.245920636713,-0.746700783897,0.0,0.0,0.0,0.952817280993,0.303544443272
1634830732979030000,-0.245920636713,-0.746700783897,0.0,0.0,0.0,0.952817280993,0.303544443272
1634830732999207853,-0.245920636713,-0.746700783897,0.0,0.0,0.0,0.952817280993,0.303544443272
1634830733018725826,-0.245920636713,-0.746700783897,0.0,0.0,0.0,0.952817280993,0.303544443272
1634830733071993088,-0.245920636713,-0.746700783897,0.0,0.0,0.0,0.952817280993,0.303544443272
1634830733072013587,-0.245920636713,-0.746700783897,0.0,0.0,0.0,0.952817280993,0.303544443272
1634830733115734441,-0.245920636713,-0.746700783897,0.0,0.0,0.0,0.952817280993,0.303544443272
1634830733115751643,-0.245920636713,-0.746700783897,0.0,0.0,0.0,0.952817280993,0.303544443272
1634830733158739940,-0.245920636713,-0.746700783897,0.0,0.0,0.0,0.952817280993,0.303544443272
1634830733158755079,-0.245920636713,-0.746700783897,0.0,0.0,0.0,0.952817280993,0.303544443272
1634830733159934020,-0.245920636713,-0.746700783897,0.0,0.0,0.0,0.952817280993,0.303544443272
1634830733180073950,-0.245920636713,-0.746700783897,0.0,0.0,0.0,0.952817280993,0.303544443272
1634830733199477127,-0.245920636713,-0.746700783897,0.0,0.0,0.0,0.952817280993,0.303544443272
1634830733243784049,-0.245920636713,-0.746700783897,0.0,0.0,0.0,0.952817280993,0.303544443272
1634830733243802323,-0.245920636713,-0.746700783897,0.0,0.0,0.0,0.952817280993,0.303544443272
1634830733287741981,-0.245920636713,-0.746700783897,0.0,0.0,0.0,0.952817280993,0.303544443272
1634830733287753783,-0.245920636713,-0.746700783897,0.0,0.0,0.0,0.952817280993,0.303544443272
1634830733331755749,-0.245920636713,-0.746700783897,0.0,0.0,0.0,0.952817280993,0.303544443272
1634830733331771048,-0.245920636713,-0.746700783897,0.0,0.0,0.0,0.952817280993,0.303544443272
1634830733376019559,-0.245920636713,-0.746700783897,0.0,0.0,0.0,0.952817280993,0.303544443272
1634830733376235107,-0.245920636713,-0.746700783897,0.0,0.0,0.0,0.952817280993,0.303544443272
1634830733418669555,-0.245920636713,-0.746700783897,0.0,0.0,0.0,0.952817280993,0.303544443272
1634830733418680906,-0.245920636713,-0.746700783897,0.0,0.0,0.0,0.952817280993,0.303544443272
1634830733419589326,-0.245920636713,-0.746700783897,0.0,0.0,0.0,0.952817280993,0.303544443272
1634830733438687605,-0.245920636713,-0.746700783897,0.0,0.0,0.0,0.952817280993,0.303544443272
1634830733458399996,-0.245920636713,-0.746700783897,0.0,0.0,0.0,0.952817280993,0.303544443272
1634830733499934401,-0.245920636713,-0.746700783897,0.0,0.0,0.0,0.952817280993,0.303544443272
1634830733499946984,-0.245920636713,-0.746700783897,0.0,0.0,0.0,0.952817280993,0.303544443272
1634830733543782626,-0.245920636713,-0.746700783897,0.0,0.0,0.0,0.952817280993,0.303544443272
1634830733543795360,-0.245920636713,-0.746700783897,0.0,0.0,0.0,0.952817280993,0.303544443272
1634830733587765925,-0.245920636713,-0.746700783897,0.0,0.0,0.0,0.952817280993,0.303544443272
1634830733587779089,-0.245920636713,-0.746700783897,0.0,0.0,0.0,0.952817280993,0.303544443272
1634830733631913296,-0.245920636713,-0.746700783897,0.0,0.0,0.0,0.952817280993,0.303544443272
1634830733631931701,-0.245920636713,-0.746700783897,0.0,0.0,0.0,0.952817280993,0.303544443272
1634830733675826554,-0.245920636713,-0.746700783897,0.0,0.0,0.0,0.952817280993,0.303544443272
1634830733675839478,-0.245920636713,-0.746700783897,0.0,0.0,0.0,0.952817280993,0.303544443272
1634830733718657122,-0.245920636713,-0.746700783897,0.0,0.0,0.0,0.952817280993,0.303544443272
1634830733718667913,-0.245920636713,-0.746700783897,0.0,0.0,0.0,0.952817280993,0.303544443272
1634830733719761422,-0.245920636713,-0.746700783897,0.0,0.0,0.0,0.952817280993,0.303544443272
1634830733739778358,-0.245920636713,-0.746700783897,0.0,0.0,0.0,0.952817280993,0.303544443272
1634830733758162595,-0.245920636713,-0.746700783897,0.0,0.0,0.0,0.952817280993,0.303544443272
1634830733800115502,-0.245920636713,-0.746700783897,0.0,0.0,0.0,0.952817280993,0.303544443272
1634830733800125421,-0.245920636713,-0.746700783897,0.0,0.0,0.0,0.952817280993,0.303544443272
1634830733843768328,-0.245920636713,-0.746700783897,0.0,0.0,0.0,0.952817280993,0.303544443272
1634830733843791813,-0.245920636713,-0.746700783897,0.0,0.0,0.0,0.952817280993,0.303544443272
1634830733887852258,-0.245920636713,-0.746700783897,0.0,0.0,0.0,0.952817280993,0.303544443272
1634830733887871014,-0.245920636713,-0.746700783897,0.0,0.0,0.0,0.952817280993,0.303544443272
1634830733932159472,-0.245920636713,-0.746700783897,0.0,0.0,0.0,0.952817280993,0.303544443272
1634830733932171414,-0.245920636713,-0.746700783897,0.0,0.0,0.0,0.952817280993,0.303544443272
1634830733975868262,-0.245920636713,-0.746700783897,0.0,0.0,0.0,0.952817280993,0.303544443272
1634830733975883992,-0.245920636713,-0.746700783897,0.0,0.0,0.0,0.952817280993,0.303544443272
1634830734018303963,-0.245920636713,-0.746700783897,0.0,0.0,0.0,0.952817280993,0.303544443272
1634830734018317669,-0.245920636713,-0.746700783897,0.0,0.0,0.0,0.952817280993,0.303544443272
1634830734019321870,-0.245920636713,-0.746700783897,0.0,0.0,0.0,0.952817280993,0.303544443272
1634830734039117749,-0.245920636713,-0.746700783897,0.0,0.0,0.0,0.952817280993,0.303544443272
1634830734058832986,-0.245920636713,-0.746700783897,0.0,0.0,0.0,0.952817280993,0.303544443272
1634830734103881782,-0.245920636713,-0.746700783897,0.0,0.0,0.0,0.952817280993,0.303544443272
1634830734104027347,-0.245920636713,-0.746700783897,0.0,0.0,0.0,0.952817280993,0.303544443272
1634830734147886291,-0.245920636713,-0.746700783897,0.0,0.0,0.0,0.952817280993,0.303544443272
1634830734147904104,-0.245920636713,-0.746700783897,0.0,0.0,0.0,0.952817280993,0.303544443272
1634830734195778209,-0.245920636713,-0.746700783897,0.0,0.0,0.0,0.952817280993,0.303544443272
1634830734195791975,-0.245920636713,-0.746700783897,0.0,0.0,0.0,0.952817280993,0.303544443272
1634830734239242597,-0.245920636713,-0.746700783897,0.0,0.0,0.0,0.952817280993,0.303544443272
1634830734239256764,-0.245920636713,-0.746700783897,0.0,0.0,0.0,0.952817280993,0.303544443272
1634830734239731713,-0.245920636713,-0.746700783897,0.0,0.0,0.0,0.952817280993,0.303544443272
1634830734258630594,-0.245920636713,-0.746700783897,0.0,0.0,0.0,0.952817280993,0.303544443272
1634830734278437324,-0.245920636713,-0.746700783897,0.0,0.0,0.0,0.952817280993,0.303544443272
1634830734320195954,-0.245920636713,-0.746700783897,0.0,0.0,0.0,0.952817280993,0.303544443272
1634830734320210201,-0.245920636713,-0.746700783897,0.0,0.0,0.0,0.952817280993,0.303544443272
1634830734363829491,-0.245920636713,-0.746700783897,0.0,0.0,0.0,0.952817280993,0.303544443272
1634830734363839220,-0.245920636713,-0.746700783897,0.0,0.0,0.0,0.952817280993,0.303544443272
1634830734407764329,-0.245920636713,-0.746700783897,0.0,0.0,0.0,0.952817280993,0.303544443272
1634830734407905456,-0.245920636713,-0.746700783897,0.0,0.0,0.0,0.952817280993,0.303544443272
1634830734451841427,-0.245920636713,-0.746700783897,0.0,0.0,0.0,0.952817280993,0.303544443272
1634830734451853680,-0.245920636713,-0.746700783897,0.0,0.0,0.0,0.952817280993,0.303544443272
1634830734495986644,-0.245920636713,-0.746700783897,0.0,0.0,0.0,0.952817280993,0.303544443272
1634830734496002163,-0.245920636713,-0.746700783897,0.0,0.0,0.0,0.952817280993,0.303544443272
1634830734538657600,-0.245920636713,-0.746700783897,0.0,0.0,0.0,0.952817280993,0.303544443272
1634830734538670184,-0.245920636713,-0.746700783897,0.0,0.0,0.0,0.952817280993,0.303544443272
1634830734539861428,-0.245920636713,-0.746700783897,0.0,0.0,0.0,0.952817280993,0.303544443272
1634830734558687882,-0.245920636713,-0.746700783897,0.0,0.0,0.0,0.952817280993,0.303544443272
1634830734578054960,-0.245920636713,-0.746700783897,0.0,0.0,0.0,0.952817280993,0.303544443272
1634830734620271596,-0.245920636713,-0.746700783897,0.0,0.0,0.0,0.952817280993,0.303544443272
1634830734620284691,-0.245920636713,-0.746700783897,0.0,0.0,0.0,0.952817280993,0.303544443272
1634830734667448520,-0.245920636713,-0.746700783897,0.0,0.0,0.0,0.952817280993,0.303544443272
1634830734667460954,-0.245920636713,-0.746700783897,0.0,0.0,0.0,0.952817280993,0.303544443272
1634830734711789939,-0.245920636713,-0.746700783897,0.0,0.0,0.0,0.952817280993,0.303544443272
1634830734711806059,-0.245920636713,-0.746700783897,0.0,0.0,0.0,0.952817280993,0.303544443272
1634830734755742480,-0.245920636713,-0.746700783897,0.0,0.0,0.0,0.952817280993,0.303544443272
1634830734755756627,-0.245920636713,-0.746700783897,0.0,0.0,0.0,0.952817280993,0.303544443272
1634830734798757748,-0.245920636713,-0.746700783897,0.0,0.0,0.0,0.952817280993,0.303544443272
1634830734798772676,-0.245920636713,-0.746700783897,0.0,0.0,0.0,0.952817280993,0.303544443272
1634830734800187484,-0.245920636713,-0.746700783897,0.0,0.0,0.0,0.952817280993,0.303544443272
1634830734818323231,-0.245920636713,-0.746700783897,0.0,0.0,0.0,0.952817280993,0.303544443272
1634830734838928582,-0.245920636713,-0.746700783897,0.0,0.0,0.0,0.952817280993,0.303544443272
1634830734883752483,-0.245920636713,-0.746700783897,0.0,0.0,0.0,0.952817280993,0.303544443272
1634830734883764586,-0.245920636713,-0.746700783897,0.0,0.0,0.0,0.952817280993,0.303544443272
1634830734927775218,-0.245920636713,-0.746700783897,0.0,0.0,0.0,0.952817280993,0.303544443272
1634830734927788202,-0.245920636713,-0.746700783897,0.0,0.0,0.0,0.952817280993,0.303544443272
1634830734975118227,-0.245920636713,-0.746700783897,0.0,0.0,0.0,0.952817280993,0.303544443272
1634830734975128847,-0.245920636713,-0.746700783897,0.0,0.0,0.0,0.952817280993,0.303544443272
1634830735017804402,-0.245920636713,-0.746700783897,0.0,0.0,0.0,0.952817280993,0.303544443272
1634830735017821474,-0.245920636713,-0.746700783897,0.0,0.0,0.0,0.952817280993,0.303544443272
1634830735019027437,-0.245920636713,-0.746700783897,0.0,0.0,0.0,0.952817280993,0.303544443272
1634830735038643416,-0.245920636713,-0.746700783897,0.0,0.0,0.0,0.952817280993,0.303544443272
1634830735058159164,-0.245920636713,-0.746700783897,0.0,0.0,0.0,0.952817280993,0.303544443272
1634830735099974360,-0.245920636713,-0.746700783897,0.0,0.0,0.0,0.952817280993,0.303544443272
1634830735099987766,-0.245920636713,-0.746700783897,0.0,0.0,0.0,0.952817280993,0.303544443272
1634830735143848574,-0.245920636713,-0.746700783897,0.0,0.0,0.0,0.952817280993,0.303544443272
1634830735143858793,-0.245920636713,-0.746700783897,0.0,0.0,0.0,0.952817280993,0.303544443272
1634830735187762012,-0.245920636713,-0.746700783897,0.0,0.0,0.0,0.952817280993,0.303544443272
1634830735187775467,-0.245920636713,-0.746700783897,0.0,0.0,0.0,0.952817280993,0.303544443272
1634830735231860650,-0.245920636713,-0.746700783897,0.0,0.0,0.0,0.952817280993,0.303544443272
1634830735231874907,-0.245920636713,-0.746700783897,0.0,0.0,0.0,0.952817280993,0.303544443272
1634830735275856614,-0.245920636713,-0.746700783897,0.0,0.0,0.0,0.952817280993,0.303544443272
1634830735275868617,-0.245920636713,-0.746700783897,0.0,0.0,0.0,0.952817280993,0.303544443272
1634830735317492981,-0.245920636713,-0.746700783897,0.0,0.0,0.0,0.952817280993,0.303544443272
1634830735317505165,-0.245920636713,-0.746700783897,0.0,0.0,0.0,0.952817280993,0.303544443272
1634830735320569274,-0.245920636713,-0.746700783897,0.0,0.0,0.0,0.952817280993,0.303544443272
1634830735338668442,-0.245920636713,-0.746700783897,0.0,0.0,0.0,0.952817280993,0.303544443272
1634830735359217045,-0.245920636713,-0.746700783897,0.0,0.0,0.0,0.952817280993,0.303544443272
1634830735403777218,-0.245920636713,-0.746700783897,0.0,0.0,0.0,0.952817280993,0.303544443272
1634830735403790142,-0.245920636713,-0.746700783897,0.0,0.0,0.0,0.952817280993,0.303544443272
1634830735447778762,-0.245920636713,-0.746700783897,0.0,0.0,0.0,0.952817280993,0.303544443272
1634830735447794411,-0.245920636713,-0.746700783897,0.0,0.0,0.0,0.952817280993,0.303544443272
1634830735491842214,-0.245920636713,-0.746700783897,0.0,0.0,0.0,0.952817280993,0.303544443272
1634830735491854357,-0.245920636713,-0.746700783897,0.0,0.0,0.0,0.952817280993,0.303544443272
1634830735535936233,-0.245920636713,-0.746700783897,0.0,0.0,0.0,0.952817280993,0.303544443272
1634830735535950781,-0.245920636713,-0.746700783897,0.0,0.0,0.0,0.952817280993,0.303544443272
1634830735577774574,-0.245920636713,-0.746700783897,0.0,0.0,0.0,0.952817280993,0.303544443272
1634830735577789151,-0.245920636713,-0.746700783897,0.0,0.0,0.0,0.952817280993,0.303544443272
1634830735578951662,-0.245920636713,-0.746700783897,0.0,0.0,0.0,0.952817280993,0.303544443272
1634830735598167112,-0.245920636713,-0.746700783897,0.0,0.0,0.0,0.952817280993,0.303544443272
1634830735617277463,-0.245920636713,-0.746700783897,0.0,0.0,0.0,0.952817280993,0.303544443272
1634830735660001951,-0.245920636713,-0.746700783897,0.0,0.0,0.0,0.952817280993,0.303544443272
1634830735660015015,-0.245920636713,-0.746700783897,0.0,0.0,0.0,0.952817280993,0.303544443272
1634830735703828414,-0.245920636713,-0.746700783897,0.0,0.0,0.0,0.952817280993,0.303544443272
1634830735703841138,-0.245920636713,-0.746700783897,0.0,0.0,0.0,0.952817280993,0.303544443272
1634830735747793950,-0.245920636713,-0.746700783897,0.0,0.0,0.0,0.952817280993,0.303544443272
1634830735747803297,-0.245920636713,-0.746700783897,0.0,0.0,0.0,0.952817280993,0.303544443272
1634830735795790085,-0.245920636713,-0.746700783897,0.0,0.0,0.0,0.952817280993,0.303544443272
1634830735795803471,-0.245920636713,-0.746700783897,0.0,0.0,0.0,0.952817280993,0.303544443272
1634830735839262579,-0.245920636713,-0.746700783897,0.0,0.0,0.0,0.952817280993,0.303544443272
1634830735839273509,-0.245920636713,-0.746700783897,0.0,0.0,0.0,0.952817280993,0.303544443272
1634830735840870031,-0.245920636713,-0.746700783897,0.0,0.0,0.0,0.952817280993,0.303544443272
1634830735858710459,-0.245920636713,-0.746700783897,0.0,0.0,0.0,0.952817280993,0.303544443272
1634830735877251943,-0.245920636713,-0.746700783897,0.0,0.0,0.0,0.952817280993,0.303544443272
1634830735919913202,-0.245920636713,-0.746700783897,0.0,0.0,0.0,0.952817280993,0.303544443272
1634830735919922118,-0.245920636713,-0.746700783897,0.0,0.0,0.0,0.952817280993,0.303544443272
1634830735963953540,-0.245920636713,-0.746700783897,0.0,0.0,0.0,0.952817280993,0.303544443272
1634830735963969921,-0.245920636713,-0.746700783897,0.0,0.0,0.0,0.952817280993,0.303544443272
1634830736007798897,-0.245920636713,-0.746700783897,0.0,0.0,0.0,0.952817280993,0.303544443272
1634830736007809437,-0.245920636713,-0.746700783897,0.0,0.0,0.0,0.952817280993,0.303544443272
1634830736052361585,-0.245920636713,-0.746700783897,0.0,0.0,0.0,0.952817280993,0.303544443272
1634830736052375541,-0.245920636713,-0.746700783897,0.0,0.0,0.0,0.952817280993,0.303544443272
1634830736095871649,-0.245920636713,-0.746700783897,0.0,0.0,0.0,0.952817280993,0.303544443272
1634830736095882740,-0.245920636713,-0.746700783897,0.0,0.0,0.0,0.952817280993,0.303544443272
1634830736139572756,-0.245920636713,-0.746700783897,0.0,0.0,0.0,0.952817280993,0.303544443272
1634830736139581983,-0.245920636713,-0.746700783897,0.0,0.0,0.0,0.952817280993,0.303544443272
1634830736140211575,-0.245920636713,-0.746700783897,0.0,0.0,0.0,0.952817280993,0.303544443272
1634830736157744129,-0.245920636713,-0.746700783897,0.0,0.0,0.0,0.952817280993,0.303544443272
1634830736177963359,-0.245920636713,-0.746700783897,0.0,0.0,0.0,0.952817280993,0.303544443272
1634830736219866943,-0.245920636713,-0.746700783897,0.0,0.0,0.0,0.952817280993,0.303544443272
1634830736219877222,-0.245920636713,-0.746700783897,0.0,0.0,0.0,0.952817280993,0.303544443272
1634830736266712551,-0.245920636713,-0.746700783897,0.0,0.0,0.0,0.952817280993,0.303544443272
1634830736266726016,-0.245920636713,-0.746700783897,0.0,0.0,0.0,0.952817280993,0.303544443272
1634830736312662433,-0.245920636713,-0.746700783897,0.0,0.0,0.0,0.952817280993,0.303544443272
1634830736312676069,-0.245920636713,-0.746700783897,0.0,0.0,0.0,0.952817280993,0.303544443272
1634830736358160961,-0.245920636713,-0.746700783897,0.0,0.0,0.0,0.952817280993,0.303544443272
1634830736358169026,-0.245920636713,-0.746700783897,0.0,0.0,0.0,0.952817280993,0.303544443272
1634830736397269825,-0.245920636713,-0.746700783897,0.0,0.0,0.0,0.952817280993,0.303544443272
1634830736397278972,-0.245920636713,-0.746700783897,0.0,0.0,0.0,0.952817280993,0.303544443272
1634830736398185438,-0.245920636713,-0.746700783897,0.0,0.0,0.0,0.952817280993,0.303544443272
1634830736416844645,-0.245920636713,-0.746700783897,0.0,0.0,0.0,0.952817280993,0.303544443272
1634830736438781877,-0.245920636713,-0.746700783897,0.0,0.0,0.0,0.952817280993,0.303544443272
1634830736480265506,-0.245920636713,-0.746700783897,0.0,0.0,0.0,0.952817280993,0.303544443272
1634830736480275946,-0.245920636713,-0.746700783897,0.0,0.0,0.0,0.952817280993,0.303544443272
1634830736523779057,-0.245920636713,-0.746700783897,0.0,0.0,0.0,0.952817280993,0.303544443272
1634830736523790418,-0.245920636713,-0.746700783897,0.0,0.0,0.0,0.952817280993,0.303544443272
1634830736567736518,-0.245920636713,-0.746700783897,0.0,0.0,0.0,0.952817280993,0.303544443272
1634830736567750094,-0.245920636713,-0.746700783897,0.0,0.0,0.0,0.952817280993,0.303544443272
1634830736613688504,-0.245920636713,-0.746700783897,0.0,0.0,0.0,0.952817280993,0.303544443272
1634830736613695216,-0.245920636713,-0.746700783897,0.0,0.0,0.0,0.952817280993,0.303544443272
1634830736655960406,-0.245920636713,-0.746700783897,0.0,0.0,0.0,0.952817280993,0.303544443272
1634830736655972599,-0.245920636713,-0.746700783897,0.0,0.0,0.0,0.952817280993,0.303544443272
1634830736698287249,-0.245920636713,-0.746700783897,0.0,0.0,0.0,0.952817280993,0.303544443272
1634830736698297419,-0.245920636713,-0.746700783897,0.0,0.0,0.0,0.952817280993,0.303544443272
1634830736699328480,-0.245920636713,-0.746700783897,0.0,0.0,0.0,0.952817280993,0.303544443272
1634830736717559769,-0.245920636713,-0.746700783897,0.0,0.0,0.0,0.952817280993,0.303544443272
1634830736737123057,-0.245920636713,-0.746700783897,0.0,0.0,0.0,0.952817280993,0.303544443272
1634830736779781799,-0.245920636713,-0.746700783897,0.0,0.0,0.0,0.952817280993,0.303544443272
1634830736779798431,-0.245920636713,-0.746700783897,0.0,0.0,0.0,0.952817280993,0.303544443272
1634830736823756563,-0.245920636713,-0.746700783897,0.0,0.0,0.0,0.952817280993,0.303544443272
1634830736823772624,-0.245920636713,-0.746700783897,0.0,0.0,0.0,0.952817280993,0.303544443272
1634830736868031305,-0.245920636713,-0.746700783897,0.0,0.0,0.0,0.952817280993,0.303544443272
1634830736868041194,-0.245920636713,-0.746700783897,0.0,0.0,0.0,0.952817280993,0.303544443272
1634830736912446793,-0.245920636713,-0.746700783897,0.0,0.0,0.0,0.952817280993,0.303544443272
1634830736912461070,-0.245920636713,-0.746700783897,0.0,0.0,0.0,0.952817280993,0.303544443272
1634830736955942711,-0.245920636713,-0.746700783897,0.0,0.0,0.0,0.952817280993,0.303544443272
1634830736955958802,-0.245920636713,-0.746700783897,0.0,0.0,0.0,0.952817280993,0.303544443272
1634830736997563118,-0.245920636713,-0.746700783897,0.0,0.0,0.0,0.952817280993,0.303544443272
1634830736997571363,-0.245920636713,-0.746700783897,0.0,0.0,0.0,0.952817280993,0.303544443272
1634830736998823604,-0.245920636713,-0.746700783897,0.0,0.0,0.0,0.952817280993,0.303544443272
1634830737017569835,-0.245920636713,-0.746700783897,0.0,0.0,0.0,0.952817280993,0.303544443272
1634830737037702343,-0.245920636713,-0.746700783897,0.0,0.0,0.0,0.952817280993,0.303544443272
1634830737080092467,-0.245920636713,-0.746700783897,0.0,0.0,0.0,0.952817280993,0.303544443272
1634830737080103478,-0.245920636713,-0.746700783897,0.0,0.0,0.0,0.952817280993,0.303544443272
1634830737125751218,-0.245920636713,-0.746700783897,0.0,0.0,0.0,0.952817280993,0.303544443272
1634830737125759954,-0.245920636713,-0.746700783897,0.0,0.0,0.0,0.952817280993,0.303544443272
1634830737167816448,-0.245920636713,-0.746700783897,0.0,0.0,0.0,0.952817280993,0.303544443272
1634830737167827058,-0.245920636713,-0.746700783897,0.0,0.0,0.0,0.952817280993,0.303544443272
1634830737211846846,-0.245920636713,-0.746700783897,0.0,0.0,0.0,0.952817280993,0.303544443272
1634830737211856564,-0.245920636713,-0.746700783897,0.0,0.0,0.0,0.952817280993,0.303544443272
1634830737255728695,-0.245920636713,-0.746700783897,0.0,0.0,0.0,0.952817280993,0.303544443272
1634830737255740637,-0.245920636713,-0.746700783897,0.0,0.0,0.0,0.952817280993,0.303544443272
1634830737298138767,-0.245920636713,-0.746700783897,0.0,0.0,0.0,0.952817280993,0.303544443272
1634830737298170196,-0.245920636713,-0.746700783897,0.0,0.0,0.0,0.952817280993,0.303544443272
1634830737299505584,-0.245920636713,-0.746700783897,0.0,0.0,0.0,0.952817280993,0.303544443272
1634830737317234661,-0.245920636713,-0.746700783897,0.0,0.0,0.0,0.952817280993,0.303544443272
1634830737336950769,-0.245920636713,-0.746700783897,0.0,0.0,0.0,0.952817280993,0.303544443272
1634830737380746333,-0.245920636713,-0.746700783897,0.0,0.0,0.0,0.952817280993,0.303544443272
1634830737380760971,-0.245920636713,-0.746700783897,0.0,0.0,0.0,0.952817280993,0.303544443272
1634830737423815954,-0.245920636713,-0.746700783897,0.0,0.0,0.0,0.952817280993,0.303544443272
1634830737423828427,-0.245920636713,-0.746700783897,0.0,0.0,0.0,0.952817280993,0.303544443272
1634830737467891188,-0.245920636713,-0.746700783897,0.0,0.0,0.0,0.952817280993,0.303544443272
1634830737467903170,-0.245920636713,-0.746700783897,0.0,0.0,0.0,0.952817280993,0.303544443272
1634830737517327048,-0.245920636713,-0.746700783897,0.0,0.0,0.0,0.952817280993,0.303544443272
1634830737517335123,-0.245920636713,-0.746700783897,0.0,0.0,0.0,0.952817280993,0.303544443272
1634830737517534471,-0.245920636713,-0.746700783897,0.0,0.0,0.0,0.952817280993,0.303544443272
1634830737536605147,-0.245920636713,-0.746700783897,0.0,0.0,0.0,0.952817280993,0.303544443272
1634830737557841062,-0.245920636713,-0.746700783897,0.0,0.0,0.0,0.952817280993,0.303544443272
1634830737599834265,-0.245920636713,-0.746700783897,0.0,0.0,0.0,0.952817280993,0.303544443272
1634830737599843683,-0.245920636713,-0.746700783897,0.0,0.0,0.0,0.952817280993,0.303544443272
1634830737645828992,-0.245920636713,-0.746700783897,0.0,0.0,0.0,0.952817280993,0.303544443272
1634830737645838089,-0.245920636713,-0.746700783897,0.0,0.0,0.0,0.952817280993,0.303544443272
1634830737688193869,-0.245920636713,-0.746700783897,0.0,0.0,0.0,0.952817280993,0.303544443272
1634830737688205551,-0.245920636713,-0.746700783897,0.0,0.0,0.0,0.952817280993,0.303544443272
1634830737732359053,-0.245920636713,-0.746700783897,0.0,0.0,0.0,0.952817280993,0.303544443272
1634830737732372719,-0.245920636713,-0.746700783897,0.0,0.0,0.0,0.952817280993,0.303544443272
1634830737777878260,-0.245920636713,-0.746700783897,0.0,0.0,0.0,0.952817280993,0.303544443272
1634830737777890183,-0.245920636713,-0.746700783897,0.0,0.0,0.0,0.952817280993,0.303544443272
1634830737778769768,-0.245920636713,-0.746700783897,0.0,0.0,0.0,0.952817280993,0.303544443272
1634830737796517519,-0.245920636713,-0.746700783897,0.0,0.0,0.0,0.952817280993,0.303544443272
1634830737816818144,-0.245920636713,-0.746700783897,0.0,0.0,0.0,0.952817280993,0.303544443272
1634830737859802543,-0.245920636713,-0.746700783897,0.0,0.0,0.0,0.952817280993,0.303544443272
1634830737859816109,-0.245920636713,-0.746700783897,0.0,0.0,0.0,0.952817280993,0.303544443272
1634830737903828193,-0.245920636713,-0.746700783897,0.0,0.0,0.0,0.952817280993,0.303544443272
1634830737903844474,-0.245920636713,-0.746700783897,0.0,0.0,0.0,0.952817280993,0.303544443272
1634830737947725531,-0.245920636713,-0.746700783897,0.0,0.0,0.0,0.952817280993,0.303544443272
1634830737947740139,-0.245920636713,-0.746700783897,0.0,0.0,0.0,0.952817280993,0.303544443272
1634830737991809471,-0.245920636713,-0.746700783897,0.0,0.0,0.0,0.952817280993,0.303544443272
1634830737991822846,-0.245920636713,-0.746700783897,0.0,0.0,0.0,0.952817280993,0.303544443272
1634830738035866370,-0.245920636713,-0.746700783897,0.0,0.0,0.0,0.952817280993,0.303544443272
1634830738035880938,-0.245920636713,-0.746700783897,0.0,0.0,0.0,0.952817280993,0.303544443272
1634830738076768218,-0.245920636713,-0.746700783897,0.0,0.0,0.0,0.952817280993,0.303544443272
1634830738076777967,-0.245920636713,-0.746700783897,0.0,0.0,0.0,0.952817280993,0.303544443272
1634830738077841460,-0.245920636713,-0.746700783897,0.0,0.0,0.0,0.952817280993,0.303544443272
1634830738097578778,-0.245920636713,-0.746700783897,0.0,0.0,0.0,0.952817280993,0.303544443272
1634830738116986632,-0.245920636713,-0.746700783897,0.0,0.0,0.0,0.952817280993,0.303544443272
1634830738159806039,-0.245920636713,-0.746700783897,0.0,0.0,0.0,0.952817280993,0.303544443272
1634830738159843550,-0.245920636713,-0.746700783897,0.0,0.0,0.0,0.952817280993,0.303544443272
1634830738203853781,-0.245920636713,-0.746700783897,0.0,0.0,0.0,0.952817280993,0.303544443272
1634830738203873549,-0.245920636713,-0.746700783897,0.0,0.0,0.0,0.952817280993,0.303544443272
1634830738248009677,-0.245920636713,-0.746700783897,0.0,0.0,0.0,0.952817280993,0.303544443272
1634830738248022832,-0.245920636713,-0.746700783897,0.0,0.0,0.0,0.952817280993,0.303544443272
1634830738291874914,-0.245920636713,-0.746700783897,0.0,0.0,0.0,0.952817280993,0.303544443272
1634830738291887167,-0.245920636713,-0.746700783897,0.0,0.0,0.0,0.952817280993,0.303544443272
1634830738335835872,-0.245920636713,-0.746700783897,0.0,0.0,0.0,0.952817280993,0.303544443272
1634830738335846723,-0.245920636713,-0.746700783897,0.0,0.0,0.0,0.952817280993,0.303544443272
1634830738377683309,-0.245920636713,-0.746700783897,0.0,0.0,0.0,0.952817280993,0.303544443272
1634830738377696694,-0.245920636713,-0.746700783897,0.0,0.0,0.0,0.952817280993,0.303544443272
1634830738381955956,-0.245920636713,-0.746700783897,0.0,0.0,0.0,0.952817280993,0.303544443272
1634830738397347008,-0.245920636713,-0.746700783897,0.0,0.0,0.0,0.952817280993,0.303544443272
1634830738417045823,-0.245920636713,-0.746700783897,0.0,0.0,0.0,0.952817280993,0.303544443272
1634830738459778837,-0.245920636713,-0.746700783897,0.0,0.0,0.0,0.952817280993,0.303544443272
1634830738459789256,-0.245920636713,-0.746700783897,0.0,0.0,0.0,0.952817280993,0.303544443272
1634830738503852908,-0.245920636713,-0.746700783897,0.0,0.0,0.0,0.952817280993,0.303544443272
1634830738503863438,-0.245920636713,-0.746700783897,0.0,0.0,0.0,0.952817280993,0.303544443272
1634830738564686682,-0.245920636713,-0.746700783897,0.0,0.0,0.0,0.952817280993,0.303544443272
1634830738564695779,-0.245920636713,-0.746700783897,0.0,0.0,0.0,0.952817280993,0.303544443272
1634830738564770882,-0.245920636713,-0.746700783897,0.0,0.0,0.0,0.952817280993,0.303544443272
1634830738576098211,-0.245920636713,-0.746700783897,0.0,0.0,0.0,0.952817280993,0.303544443272
1634830738604663829,-0.245920636713,-0.746700783897,0.0,0.0,0.0,0.952817280993,0.303544443272
1634830738649358035,-0.245920636713,-0.746700783897,0.0,0.0,0.0,0.952817280993,0.303544443272
1634830738649367172,-0.245920636713,-0.746700783897,0.0,0.0,0.0,0.952817280993,0.303544443272
1634830738691735956,-0.245920636713,-0.746700783897,0.0,0.0,0.0,0.952817280993,0.303544443272
1634830738691745915,-0.245920636713,-0.746700783897,0.0,0.0,0.0,0.952817280993,0.303544443272
1634830738736724088,-0.245920636713,-0.746700783897,0.0,0.0,0.0,0.952817280993,0.303544443272
1634830738736734448,-0.245920636713,-0.746700783897,0.0,0.0,0.0,0.952817280993,0.303544443272
1634830738737879756,-0.24595344809,-0.74667751333,0.0,0.0,0.0,0.952799069979,0.303601601193
1634830738755908289,-0.246078056016,-0.746589100993,0.0,0.0,0.0,0.952756475673,0.303735243368
1634830738775989849,-0.246405727181,-0.74635649218,0.0,0.0,0.0,0.952731654581,0.30381309116
1634830738819820701,-0.246752945722,-0.746110079252,0.0,0.0,0.0,0.952773390006,0.303682181393
1634830738819837292,-0.247283716169,-0.74573360191,0.0,0.0,0.0,0.952826868173,0.303514347747
1634830738867243421,-0.247945755024,-0.745264185495,0.0,0.0,0.0,0.952831697626,0.303499186159
1634830738867258419,-0.248889608298,-0.744595150149,0.0,0.0,0.0,0.952902517977,0.30327675683
1634830738911780037,-0.250017468448,-0.743796470661,0.0,0.0,0.0,0.952936702668,0.303169326795
1634830738911790407,-0.251453716099,-0.742779302843,0.0,0.0,0.0,0.952867572909,0.303386533152
1634830738955972113,-0.253040330032,-0.741654646603,0.0,0.0,0.0,0.95279206483,0.303623584718
1634830738955984878,-0.25485552838,-0.740366106889,0.0,0.0,0.0,0.952710018549,0.303880931545
1634830738996335322,-0.256860020871,-0.738941461388,0.0,0.0,0.0,0.952585112139,0.304272253304
1634830738996346043,-0.258942081459,-0.737459950162,0.0,0.0,0.0,0.952557002391,0.304360242471
1634830738997676751,-0.2612401919,-0.735824994698,0.0,0.0,0.0,0.952595206422,0.304240649326
1634830739015822235,-0.26358429786,-0.73415746662,0.0,0.0,0.0,0.952590873513,0.304254215583
1634830739035772827,-0.265842868216,-0.732549162365,0.0,0.0,0.0,0.952422830568,0.304779841545
1634830739079994077,-0.268014769167,-0.730999597785,0.0,0.0,0.0,0.952333724965,0.305058152317
1634830739080000679,-0.270173242047,-0.729459766712,0.0,0.0,0.0,0.952439099991,0.304728995681
1634830739123803287,-0.272352481269,-0.727907509665,0.0,0.0,0.0,0.952538258043,0.304418900473
1634830739123820650,-0.274362178668,-0.726476954617,0.0,0.0,0.0,0.952552740427,0.304373580826
1634830739168651074,-0.276083654798,-0.725249964387,0.0,0.0,0.0,0.952300517011,0.305161801837
1634830739168664570,-0.277606823434,-0.724160087438,0.0,0.0,0.0,0.95204800648,0.305948677654
1634830739211857884,-0.2790958509,-0.723092781538,0.0,0.0,0.0,0.952069619398,0.305881414636
1634830739211875738,-0.280670289053,-0.72196601506,0.0,0.0,0.0,0.952243323385,0.305340225107
1634830739255898974,-0.282383403445,-0.720743487253,0.0,0.0,0.0,0.952507542442,0.304514994033
1634830739255912990,-0.284295102503,-0.719383688719,0.0,0.0,0.0,0.952649557114,0.304070421662
1634830739295899116,-0.285689830863,-0.718390549008,0.0,0.0,0.0,0.952410341764,0.304818865725
1634830739295913292,-0.287024233125,-0.717437952307,0.0,0.0,0.0,0.952298453279,0.305168241929
1634830739296803888,-0.288227241438,-0.716577845448,0.0,0.0,0.0,0.952174501046,0.305554773417
1634830739316617559,-0.289292416028,-0.715815672534,0.0,0.0,0.0,0.952178609385,0.305541970651
1634830739335741817,-0.290449040614,-0.714988147683,0.0,0.0,0.0,0.952219075831,0.305415833943
1634830739379912030,-0.291632184431,-0.714142505029,0.0,0.0,0.0,0.952271645087,0.305251886093
1634830739379924243,-0.292907175177,-0.713232010888,0.0,0.0,0.0,0.952348334831,0.305012539322
1634830739423847561,-0.294228362659,-0.712289335995,0.0,0.0,0.0,0.952406655442,0.304830383443
1634830739423858080,-0.295556451044,-0.711342083917,0.0,0.0,0.0,0.952373811929,0.304932980098
1634830739467946178,-0.296982420328,-0.710324188778,0.0,0.0,0.0,0.952273879384,0.305244915836
1634830739467960305,-0.298459852298,-0.709267687963,0.0,0.0,0.0,0.952161567162,0.305595075253
1634830739511801776,-0.299995327667,-0.70816827449,0.0,0.0,0.0,0.952103878788,0.305774760235
1634830739511813989,-0.301713467225,-0.706937772589,0.0,0.0,0.0,0.952106773743,0.305765745945
1634830739555469048,-0.303451346053,-0.705693844102,0.0,0.0,0.0,0.952200995592,0.305472198396
1634830739555621607,-0.305314134462,-0.704362033248,0.0,0.0,0.0,0.952276647898,0.305236278756
1634830739556274242,-0.307079509292,-0.703100746185,0.0,0.0,0.0,0.952249032106,0.305322421143
1634830739576511457,-0.308824680788,-0.701852236078,0.0,0.0,0.0,0.952130100558,0.305693100366
1634830739598252627,-0.31060816681,-0.700574695647,0.0,0.0,0.0,0.952071931309,0.305874218615
1634830739642700307,-0.312319471319,-0.699348313044,0.0,0.0,0.0,0.95204435518,0.305960039499
1634830739642708993,-0.314174368767,-0.698019090685,0.0,0.0,0.0,0.952077479675,0.305856948092
1634830739685690316,-0.315983919218,-0.696723292384,0.0,0.0,0.0,0.952141141768,0.305658708616
1634830739685700886,-0.317722007797,-0.695479326206,0.0,0.0,0.0,0.952162272249,0.305592878362
1634830739728137699,-0.319342326192,-0.694318667823,0.0,0.0,0.0,0.952037368648,0.305981778375
1634830739728153259,-0.320844191144,-0.69324124569,0.0,0.0,0.0,0.95196136111,0.306218168883
1634830739771753393,-0.322306549323,-0.692191850039,0.0,0.0,0.0,0.951970837856,0.306188706309
1634830739771767179,-0.323801655338,-0.691119204273,0.0,0.0,0.0,0.951986354364,0.306140459764
1634830739816242190,-0.325473345631,-0.689920918392,0.0,0.0,0.0,0.952093003699,0.305808620393
1634830739816251638,-0.326988997973,-0.688835861553,0.0,0.0,0.0,0.95217547345,0.305551743181
1634830739817072201,-0.328426689137,-0.687806949252,0.0,0.0,0.0,0.952124068712,0.30571188688
1634830739836560828,-0.329778991282,-0.68683796859,0.0,0.0,0.0,0.952017915724,0.306042297961
1634830739855725032,-0.331169774699,-0.68583975175,0.0,0.0,0.0,0.951874932069,0.306486726791
1634830739899925062,-0.332598857623,-0.684812597045,0.0,0.0,0.0,0.951817270617,0.306665751844
1634830739899939199,-0.334079846214,-0.683748009411,0.0,0.0,0.0,0.951869494208,0.306503614981
1634830739943803924,-0.335593900034,-0.682660558159,0.0,0.0,0.0,0.951915523668,0.306360630302
1634830739943813633,-0.337199785258,-0.681508285874,0.0,0.0,0.0,0.951997971875,0.306104331145
1634830739987763890,-0.338682133417,-0.680445371923,0.0,0.0,0.0,0.952001308307,0.3060939545
1634830739987775692,-0.340170897951,-0.679377259039,0.0,0.0,0.0,0.951925297287,0.306330260315
1634830740038951015,-0.341671945764,-0.678298423996,0.0,0.0,0.0,0.951788085585,0.306756320455
1634830740038962737,-0.343139621458,-0.677242355885,0.0,0.0,0.0,0.951730300169,0.306935556331
1634830740075559987,-0.344770125373,-0.676069207953,0.0,0.0,0.0,0.951800629372,0.306717397496
1634830740075574645,-0.346479323797,-0.674840166531,0.0,0.0,0.0,0.951834104216,0.30661349946
1634830740076537407,-0.348208502296,-0.673597976771,0.0,0.0,0.0,0.951946912798,0.306263081703
1634830740095281796,-0.349892697491,-0.672388891038,0.0,0.0,0.0,0.951907138545,0.30638668311
1634830740115604372,-0.351491692137,-0.671239891976,0.0,0.0,0.0,0.951788061179,0.30675639618
1634830740159777892,-0.353109253091,-0.670075613308,0.0,0.0,0.0,0.951711641481,0.30699340623
1634830740159795045,-0.354713274934,-0.668920199559,0.0,0.0,0.0,0.951671919009,0.307116522788
1634830740208172010,-0.356441086541,-0.667675944505,0.0,0.0,0.0,0.951748222873,0.306879976958
1634830740208312786,-0.358267524986,-0.666362525121,0.0,0.0,0.0,0.951854837315,0.30654912931
1634830740251836958,-0.360003475377,-0.665115851832,0.0,0.0,0.0,0.951937092584,0.306293603854
1634830740251850293,-0.361543993225,-0.664009763492,0.0,0.0,0.0,0.951897582535,0.306416370914
1634830740295209341,-0.363090780047,-0.662898491468,0.0,0.0,0.0,0.951827493101,0.306634021883
1634830740295222416,-0.36459790171,-0.661814861061,0.0,0.0,0.0,0.951806339441,0.306699677536
1634830740295896221,-0.366098395171,-0.660736024155,0.0,0.0,0.0,0.951840202638,0.306594567208
1634830740315425195,-0.367749210507,-0.659549693692,0.0,0.0,0.0,0.951879881969,0.306471353152
1634830740334999394,-0.369400441003,-0.658363996154,0.0,0.0,0.0,0.951931755631,0.306310190201
1634830740379812254,-0.370927973641,-0.657267652624,0.0,0.0,0.0,0.951953320995,0.306243162611
1634830740379825800,-0.372390126307,-0.656217530708,0.0,0.0,0.0,0.951865104685,0.306517246634
1634830740423760718,-0.373838616361,-0.655175771074,0.0,0.0,0.0,0.951740140966,0.30690504081
1634830740423774204,-0.375195117443,-0.6541993292,0.0,0.0,0.0,0.951737601499,0.306912915814
1634830740468055117,-0.376655925732,-0.653147722195,0.0,0.0,0.0,0.951734866616,0.306921396563
1634830740468070266,-0.378253764384,-0.651997939654,0.0,0.0,0.0,0.951799140796,0.306722016785
1634830740511795707,-0.379793480361,-0.650891339895,0.0,0.0,0.0,0.951894023172,0.306427428031
1634830740511950540,-0.381346838739,-0.649775745306,0.0,0.0,0.0,0.951891121952,0.306436440307
1634830740554828639,-0.382749913387,-0.648767257454,0.0,0.0,0.0,0.9517846199,0.3067670734
1634830740554851793,-0.384237077728,-0.647696862792,0.0,0.0,0.0,0.951696203889,0.307041260263
1634830740556039340,-0.385658367714,-0.646672553782,0.0,0.0,0.0,0.951620079965,0.307277111753
1634830740574827281,-0.387177116193,-0.645577676886,0.0,0.0,0.0,0.951623355841,0.307266966363
1634830740596148207,-0.388819733244,-0.644393793531,0.0,0.0,0.0,0.951681496856,0.307086842021
1634830740639775763,-0.390606451169,-0.643107719727,0.0,0.0,0.0,0.951788256425,0.306755790379
1634830740639787686,-0.392178584366,-0.641977024928,0.0,0.0,0.0,0.951803655262,0.306708007445
1634830740683874963,-0.393750694683,-0.640845858912,0.0,0.0,0.0,0.951721215488,0.306963724225
1634830740683886835,-0.395243895929,-0.639770124101,0.0,0.0,0.0,0.951638853668,0.307218964567
1634830740727812756,-0.396788755646,-0.638656284299,0.0,0.0,0.0,0.951593086542,0.307360696324
1634830740727824799,-0.398515946858,-0.637411058472,0.0,0.0,0.0,0.951644964133,0.307200036199
1634830740771779525,-0.400184739019,-0.636208410507,0.0,0.0,0.0,0.95167856496,0.307095928002
1634830740771794514,-0.40188652831,-0.634983022397,0.0,0.0,0.0,0.951754912533,0.306859229076
1634830740815021042,-0.403549760086,-0.633786101757,0.0,0.0,0.0,0.951721215488,0.306963724225
1634830740815035369,-0.405108139966,-0.632663205619,0.0,0.0,0.0,0.951601987359,0.307333137905
1634830740815954138,-0.406607059828,-0.631581689992,0.0,0.0,0.0,0.951525644279,0.307569420262
1634830740836497281,-0.408151073825,-0.630466732926,0.0,0.0,0.0,0.951492089569,0.30767320892
1634830740855015332,-0.409779663989,-0.629290874918,0.0,0.0,0.0,0.951550331942,0.30749303371
1634830740899834833,-0.41144135558,-0.628092365263,0.0,0.0,0.0,0.951639098094,0.307218207434
1634830740899861754,-0.413097199655,-0.626899238264,0.0,0.0,0.0,0.951672725343,0.307114024163
1634830740943738763,-0.414629300746,-0.625795127381,0.0,0.0,0.0,0.951614750324,0.307293616865
1634830740943752820,-0.416082651008,-0.624746394485,0.0,0.0,0.0,0.951495589969,0.307662383578
1634830740987723056,-0.417476588704,-0.623739218826,0.0,0.0,0.0,0.951443903721,0.307822185803
1634830740987740909,-0.418980955272,-0.62265176685,0.0,0.0,0.0,0.951422668102,0.307887814993
1634830741034768721,-0.420543915762,-0.621522281206,0.0,0.0,0.0,0.951481073521,0.307707274422
1634830741034780995,-0.422218138958,-0.620313563933,0.0,0.0,0.0,0.951545365541,0.307508402026
1634830741035646934,-0.423860289221,-0.619129033186,0.0,0.0,0.0,0.951603552255,0.307328292442
1634830741054856553,-0.425359313378,-0.618047881428,0.0,0.0,0.0,0.951576236383,0.307412859768
1634830741079219236,-0.426818909036,-0.616994098763,0.0,0.0,0.0,0.951463151476,0.307762686795
1634830741123894776,-0.428310385733,-0.615916247955,0.0,0.0,0.0,0.951441944453,0.307828241615
1634830741123909423,-0.429814756181,-0.614828856103,0.0,0.0,0.0,0.951432980312,0.307855946792
1634830741167875311,-0.431475419845,-0.613628703439,0.0,0.0,0.0,0.951472798442,0.307732861139
1634830741167888656,-0.433149527349,-0.612419990361,0.0,0.0,0.0,0.951573863925,0.307420203459
1634830741213306751,-0.434746126346,-0.611268212848,0.0,0.0,0.0,0.95157699458,0.307410512811
1634830741213319335,-0.436225367671,-0.6102006505,0.0,0.0,0.0,0.951506800212,0.307627711935
1634830741257365374,-0.437717032996,-0.609122622657,0.0,0.0,0.0,0.951387436876,0.307996663868
1634830741257377477,-0.439227456101,-0.608029641578,0.0,0.0,0.0,0.951323189931,0.308195049116
1634830741274699043,-0.440724494825,-0.606945906418,0.0,0.0,0.0,0.951332654307,0.308165833358
1634830741279105092,-0.442404072146,-0.605730961274,0.0,0.0,0.0,0.951415441571,0.307910145237
1634830741297732810,-0.444084220415,-0.604516751041,0.0,0.0,0.0,0.951485896252,0.307692361351
1634830741340113987,-0.445745349688,-0.603317023738,0.0,0.0,0.0,0.951476642277,0.307720976212
1634830741340126431,-0.44728250332,-0.60220610055,0.0,0.0,0.0,0.951400129393,0.307957454515
1634830741383848256,-0.448695316206,-0.601183750786,0.0,0.0,0.0,0.951317648196,0.30821215458
1634830741383861591,-0.450231380981,-0.600071486582,0.0,0.0,0.0,0.95127789072,0.308334841736
1634830741436163706,-0.451825757605,-0.598916689339,0.0,0.0,0.0,0.951293319774,0.308287235792
1634830741436171050,-0.453498376445,-0.597705479424,0.0,0.0,0.0,0.951296312097,0.308278002118
1634830741436185527,-0.455184307365,-0.596485853877,0.0,0.0,0.0,0.951434351927,0.307851707766
1634830741455952552,-0.456851434393,-0.595280460728,0.0,0.0,0.0,0.951369841102,0.308051011102
1634830741477722096,-0.458290158877,-0.594239036608,0.0,0.0,0.0,0.951274995973,0.308343772494
1634830741519750326,-0.459799875681,-0.593145134797,0.0,0.0,0.0,0.951222974383,0.308504218782
1634830741519762780,-0.461322091073,-0.592041147232,0.0,0.0,0.0,0.951183203795,0.308626818048
1634830741567820201,-0.462876764755,-0.590913835527,0.0,0.0,0.0,0.95122331801,0.30850315926
1634830741567832494,-0.464653011328,-0.589627068707,0.0,0.0,0.0,0.951349006438,0.30811534845
1634830741611851091,-0.466313276237,-0.588426528732,0.0,0.0,0.0,0.951425681043,0.307878504367
1634830741611864677,-0.467837110065,-0.587324940411,0.0,0.0,0.0,0.951422815077,0.307887360817
1634830741655482345,-0.469367181,-0.586217689611,0.0,0.0,0.0,0.951290989625,0.308294425929
1634830741655491833,-0.47072075919,-0.585236926573,0.0,0.0,0.0,0.951226975116,0.308491882893
1634830741656424398,-0.472243083247,-0.584133252789,0.0,0.0,0.0,0.95122410344,0.308500737493
1634830741675350079,-0.473798028231,-0.583006096685,0.0,0.0,0.0,0.951215021529,0.308528739045
1634830741695278320,-0.475476526687,-0.581789552134,0.0,0.0,0.0,0.951273327776,0.308348919021
1634830741739784939,-0.47713602018,-0.580587672567,0.0,0.0,0.0,0.951288634892,0.308301691733
1634830741739799677,-0.478626418036,-0.579508439866,0.0,0.0,0.0,0.951291970747,0.308291398505
1634830741783709047,-0.480051404826,-0.578475227565,0.0,0.0,0.0,0.951147863459,0.308735715195
1634830741783724837,-0.481488671028,-0.577432119393,0.0,0.0,0.0,0.951126687669,0.3088009456
1634830741827910791,-0.48306238635,-0.576289866239,0.0,0.0,0.0,0.951136023256,0.308772189916
1634830741827928063,-0.484649185794,-0.575138116454,0.0,0.0,0.0,0.951108407056,0.308857245385
1634830741871804811,-0.486411649628,-0.573859827852,0.0,0.0,0.0,0.951258852546,0.308393572328
1634830741871818196,-0.48798637315,-0.572718801001,0.0,0.0,0.0,0.951231294747,0.308478563102
1634830741915681599,-0.489515250038,-0.571610229824,0.0,0.0,0.0,0.951173062222,0.308658072473
1634830741915695155,-0.491037127354,-0.57050550325,0.0,0.0,0.0,0.951071712924,0.308970220048
1634830741916312564,-0.492473763665,-0.569461364045,0.0,0.0,0.0,0.95101355979,0.30914916965
1634830741938790760,-0.493968694444,-0.568374668423,0.0,0.0,0.0,0.951010731189,0.309157870938
1634830741954744347,-0.495658565063,-0.567146323227,0.0,0.0,0.0,0.951044497023,0.309053983444
1634830741996029108,-0.497335770846,-0.56592810632,0.0,0.0,0.0,0.951127522994,0.308798372735
1634830741996039739,-0.49889004304,-0.56480024113,0.0,0.0,0.0,0.951167659512,0.308674721183
1634830742040589170,-0.500399001293,-0.563705183977,0.0,0.0,0.0,0.95109095874,0.308910971321
1634830742040749824,-0.501809810978,-0.562680180757,0.0,0.0,0.0,0.951032865938,0.309089773215
1634830742087812964,-0.503324253682,-0.561579137563,0.0,0.0,0.0,0.95098686939,0.309231263374
1634830742087827481,-0.504805953986,-0.560501628194,0.0,0.0,0.0,0.950996390189,0.309201982283
1634830742131906132,-0.506541206621,-0.559240022976,0.0,0.0,0.0,0.951023914249,0.309117315152
1634830742131922263,-0.50808835552,-0.558116378551,0.0,0.0,0.0,0.95114412977,0.308747217646
1634830742174163785,-0.509740356228,-0.556917881057,0.0,0.0,0.0,0.951165621142,0.308681002263
1634830742174175708,-0.511268890343,-0.555808837309,0.0,0.0,0.0,0.951107350414,0.308860499237
1634830742175143410,-0.51267977966,-0.554783998278,0.0,0.0,0.0,0.951061584652,0.309001395142
1634830742194167086,-0.514259343446,-0.553635659973,0.0,0.0,0.0,0.95096617638,0.309294893883
1634830742215355131,-0.515857952919,-0.552473151037,0.0,0.0,0.0,0.951012452956,0.309152574505
1634830742259989503,-0.517638999986,-0.551179126048,0.0,0.0,0.0,0.951095308816,0.308897577764
1634830742260140048,-0.519362205377,-0.549928390257,0.0,0.0,0.0,0.951147445882,0.308737001656
1634830742304083832,-0.521079105382,-0.548682346581,0.0,0.0,0.0,0.951131896051,0.30878490299
1634830742304094853,-0.522620162785,-0.547562815407,0.0,0.0,0.0,0.95098733684,0.309229825808
1634830742351719045,-0.52408876905,-0.546494516374,0.0,0.0,0.0,0.95097222971,0.309276281535
1634830742351730136,-0.52556379106,-0.545421349911,0.0,0.0,0.0,0.950950943013,0.309341726869
1634830742394150377,-0.52724683952,-0.544197313256,0.0,0.0,0.0,0.950990904154,0.309218854886
1634830742394174393,-0.528858623474,-0.543025759292,0.0,0.0,0.0,0.951074097344,0.308962880232
1634830742394929031,-0.530490729282,-0.541841191099,0.0,0.0,0.0,0.951163337135,0.308688040083
1634830742414366070,-0.531973542098,-0.540764830968,0.0,0.0,0.0,0.951086682211,0.308924137808
1634830742435195116,-0.533533806744,-0.539630860225,0.0,0.0,0.0,0.950972844866,0.30927439003
1634830742480246306,-0.534878941323,-0.538652280986,0.0,0.0,0.0,0.9509394734,0.309376983516
1634830742480254051,-0.536444709538,-0.537512679347,0.0,0.0,0.0,0.950930341078,0.309405052346
1634830742526641191,-0.538075470765,-0.536325879095,0.0,0.0,0.0,0.950933418098,0.309395595223
1634830742526649526,-0.539712962944,-0.535135244657,0.0,0.0,0.0,0.951065886834,0.308988153334
1634830742572557430,-0.541325332301,-0.533964059745,0.0,0.0,0.0,0.951050521051,0.309035445229
1634830742572571887,-0.542911452401,-0.532811265474,0.0,0.0,0.0,0.950998235201,0.309196307619
1634830742614757884,-0.544282591771,-0.531813468333,0.0,0.0,0.0,0.950890823779,0.309526479082
1634830742614765489,-0.545796033039,-0.530710994545,0.0,0.0,0.0,0.950832418139,0.309705848533
1634830742616108801,-0.547257132029,-0.529646172684,0.0,0.0,0.0,0.950848162172,0.309657508378
1634830742639235715,-0.548893853941,-0.528454152566,0.0,0.0,0.0,0.950906755671,0.309477530718
1634830742655692154,-0.550589521921,-0.527220307797,0.0,0.0,0.0,0.95098369559,0.309241023673
1634830742699752500,-0.552155863178,-0.526081603022,0.0,0.0,0.0,0.950999219193,0.309193281127
1634830742699763641,-0.553676550051,-0.524975347373,0.0,0.0,0.0,0.950922365003,0.309429565066
1634830742743748282,-0.555131658619,-0.523915486292,0.0,0.0,0.0,0.950833231272,0.309703352112
1634830742743764373,-0.556644616102,-0.522812294247,0.0,0.0,0.0,0.950762439587,0.309920608336
1634830742809655279,-0.558254661628,-0.521638134524,0.0,0.0,0.0,0.950796436637,0.309816294083
1634830742809670899,-0.559994727354,-0.520369406291,0.0,0.0,0.0,0.950805482509,0.309788531793
1634830742810152540,-0.561702789327,-0.519125607441,0.0,0.0,0.0,0.950956480449,0.309324703657
1634830742813916755,-0.563320664163,-0.517948193956,0.0,0.0,0.0,0.950910251978,0.309466787691
1634830742835106271,-0.564866732455,-0.516822082122,0.0,0.0,0.0,0.95080858799,0.309779000265
1634830742884342094,-0.566379576176,-0.515718842939,0.0,0.0,0.0,0.950762488902,0.309920457049
1634830742884360569,-0.567820688541,-0.514667336297,0.0,0.0,0.0,0.950735041326,0.310004647054
1634830742927834504,-0.569527867151,-0.51342188967,0.0,0.0,0.0,0.950787389953,0.309844056108
1634830742927848560,-0.571112008576,-0.512266704475,0.0,0.0,0.0,0.950809080914,0.309777487321
1634830742971963590,-0.572923885457,-0.51094678928,0.0,0.0,0.0,0.950898211368,0.309503782879
1634830742971977837,-0.57443083142,-0.509849128007,0.0,0.0,0.0,0.950858336585,0.309626264628
1634830743013779297,-0.575820550505,-0.508835812722,0.0,0.0,0.0,0.950732204898,0.310013345793
1634830743013794005,-0.577222550437,-0.507812552671,0.0,0.0,0.0,0.950717182836,0.310059410856
1634830743014976934,-0.578592009604,-0.50681299468,0.0,0.0,0.0,0.950733117496,0.310010547071
1634830743033612086,-0.580247342252,-0.5056054453,0.0,0.0,0.0,0.950760861491,0.309925449516
1634830743054257723,-0.581811877612,-0.50446447833,0.0,0.0,0.0,0.950825814277,0.309726122413
1634830743098981063,-0.583396515208,-0.50331024629,0.0,0.0,0.0,0.95090919325,0.309470040865
1634830743098994859,-0.584806072758,-0.502283521848,0.0,0.0,0.0,0.950850995344,0.309648808578
1634830743143913881,-0.586254207263,-0.501227652928,0.0,0.0,0.0,0.950743278848,0.309979382744
1634830743143925032,-0.587688677692,-0.500180648961,0.0,0.0,0.0,0.950709658633,0.310082480935
1634830743187753398,-0.589155294345,-0.499109348211,0.0,0.0,0.0,0.95063268227,0.310318390367
1634830743187771051,-0.590712420727,-0.49797172428,0.0,0.0,0.0,0.950666821687,0.310213787804
1634830743231817131,-0.592380113632,-0.496754067259,0.0,0.0,0.0,0.95074399405,0.309977189126
1634830743231830196,-0.594035482427,-0.495546458566,0.0,0.0,0.0,0.950747027438,0.309967885141
1634830743273633990,-0.595573940944,-0.494423793863,0.0,0.0,0.0,0.950700850903,0.31010948404
1634830743273646153,-0.597040505807,-0.493352422216,0.0,0.0,0.0,0.95062386784,0.310345391286
1634830743274588567,-0.598500116973,-0.492285072697,0.0,0.0,0.0,0.950528267241,0.310638074253
1634830743293852779,-0.599920223392,-0.491245759961,0.0,0.0,0.0,0.950519369581,0.310665299078
1634830743314145338,-0.601651606723,-0.489978632592,0.0,0.0,0.0,0.950497492851,0.310732225692
1634830743356017893,-0.603369809106,-0.488721250056,0.0,0.0,0.0,0.950599445148,0.310420190844
1634830743356035065,-0.604997936466,-0.487530839071,0.0,0.0,0.0,0.950602532265,0.310410737012
1634830743399756449,-0.60662611903,-0.48634023187,0.0,0.0,0.0,0.950543737427,0.310590732699
1634830743399908247,-0.60807207718,-0.485281493075,0.0,0.0,0.0,0.95046047708,0.310845430252
1634830743443891347,-0.609478768969,-0.484251008633,0.0,0.0,0.0,0.950439206077,0.310910462274
1634830743443906165,-0.610975979611,-0.483153670974,0.0,0.0,0.0,0.950405361174,0.311013905561
1634830743491817470,-0.612777702288,-0.481833180028,0.0,0.0,0.0,0.950426713473,0.310948649004
1634830743491831176,-0.614541049257,-0.480542376731,0.0,0.0,0.0,0.950559600568,0.310542180337
1634830743533496077,-0.616233873608,-0.479304307314,0.0,0.0,0.0,0.950562565366,0.310533105039
1634830743533510174,-0.61773856144,-0.478203281034,0.0,0.0,0.0,0.950460625467,0.310844976535
1634830743535084383,-0.619171187987,-0.477153701202,0.0,0.0,0.0,0.950414516242,0.310985927843
1634830743553368481,-0.620596865141,-0.476107880234,0.0,0.0,0.0,0.950287756736,0.311373055028
1634830743577212211,-0.622216218016,-0.474919224683,0.0,0.0,0.0,0.950321888379,0.311268868454
1634830743619718345,-0.623945968213,-0.473649977271,0.0,0.0,0.0,0.950324785822,0.311260022252
1634830743619866446,-0.625572153772,-0.472457131959,0.0,0.0,0.0,0.950377495006,0.311099046906
1634830743663844155,-0.627224474397,-0.471245410173,0.0,0.0,0.0,0.950392938656,0.311051864089
1634830743663858221,-0.628604717496,-0.470232831795,0.0,0.0,0.0,0.950284858241,0.311381900885
1634830743709252171,-0.629977832943,-0.469224312557,0.0,0.0,0.0,0.950220153294,0.311579300136
1634830743709266859,-0.631331098439,-0.468229626051,0.0,0.0,0.0,0.950186508371,0.311681888003
1634830743751737385,-0.633001450395,-0.467001595061,0.0,0.0,0.0,0.950170884635,0.31172951415
1634830743751755309,-0.634561663786,-0.46585461677,0.0,0.0,0.0,0.950211377426,0.311606062539
1634830743795588776,-0.636329514427,-0.464556176488,0.0,0.0,0.0,0.950301108572,0.31133230325
1634830743795597422,-0.637929422929,-0.463381526287,0.0,0.0,0.0,0.95027943263,0.311398458443
1634830743796782355,-0.639328368105,-0.462353931335,0.0,0.0,0.0,0.950227094125,0.311558131959
1634830743815277812,-0.640707601551,-0.461340248897,0.0,0.0,0.0,0.950180978337,0.311698746237
1634830743833168855,-0.642202911557,-0.460240052085,0.0,0.0,0.0,0.950084886594,0.311991519542
1634830743877939626,-0.643853024364,-0.459025163099,0.0,0.0,0.0,0.95006306545,0.312057962032
1634830743877951559,-0.645412557486,-0.457877422397,0.0,0.0,0.0,0.950140895255,0.311820908799
1634830743919699248,-0.647231534749,-0.456539780713,0.0,0.0,0.0,0.95018090394,0.311698973029
1634830743919709617,-0.648798239945,-0.455387660592,0.0,0.0,0.0,0.950128192388,0.311859612694
1634830743964969694,-0.65024147357,-0.454325264919,0.0,0.0,0.0,0.950057032164,0.312076329824
1634830743964987408,-0.65173596271,-0.453224169583,0.0,0.0,0.0,0.950010616131,0.312217599182
1634830744007812435,-0.653133197941,-0.452194467054,0.0,0.0,0.0,0.950007933342,0.312225762209
1634830744007829266,-0.654886076548,-0.450902200593,0.0,0.0,0.0,0.949960998044,0.31236853586
1634830744052185102,-0.656528885665,-0.449691296822,0.0,0.0,0.0,0.950020079852,0.312188801655
1634830744052196203,-0.658165789446,-0.448485951903,0.0,0.0,0.0,0.950085358217,0.31199008334
1634830744094290056,-0.659757786887,-0.447314079759,0.0,0.0,0.0,0.950057429428,0.312075120425
1634830744094298001,-0.661155371935,-0.446284852076,0.0,0.0,0.0,0.950054747864,0.312083283854
1634830744095506789,-0.662669413788,-0.445169573295,0.0,0.0,0.0,0.949989623923,0.312281466691
1634830744114090353,-0.664215367709,-0.444029900511,0.0,0.0,0.0,0.949930624023,0.312460892823
1634830744133133798,-0.665825552984,-0.44284226291,0.0,0.0,0.0,0.949946209851,0.312413505454
1634830744175989483,-0.667591207336,-0.441540729479,0.0,0.0,0.0,0.950011286817,0.312215558422
1634830744175999142,-0.669189091878,-0.440363435703,0.0,0.0,0.0,0.950014441467,0.312205959271
1634830744219715907,-0.670761079804,-0.439205126705,0.0,0.0,0.0,0.9500052008,0.312234076379
1634830744219729383,-0.672235785911,-0.438117578117,0.0,0.0,0.0,0.94990275256,0.312545613757
1634830744264219131,-0.673599932137,-0.437110295331,0.0,0.0,0.0,0.949806648773,0.312837545615
1634830744264244709,-0.675015294503,-0.436064531219,0.0,0.0,0.0,0.949797688116,0.312864749772
1634830744307726430,-0.676508014853,-0.434961201061,0.0,0.0,0.0,0.949788577316,0.312892407067
1634830744307739736,-0.678239911929,-0.433681506535,0.0,0.0,0.0,0.949835118578,0.312751095148
1634830744353856432,-0.679746014736,-0.432569622565,0.0,0.0,0.0,0.949913220784,0.312513796463
1634830744353869617,-0.681317097775,-0.431409924477,0.0,0.0,0.0,0.949866590451,0.312655497866
1634830744354596743,-0.68269401899,-0.430393157469,0.0,0.0,0.0,0.949832779572,0.312758198694
1634830744374657345,-0.683986661734,-0.429438139101,0.0,0.0,0.0,0.949805354504,0.31284147512
1634830744393051881,-0.685557029728,-0.428277365024,0.0,0.0,0.0,0.949733721252,0.313058874201
1634830744436795216,-0.687172086938,-0.427082771483,0.0,0.0,0.0,0.94974308595,0.313030462879
1634830744436806548,-0.68881969897,-0.425864870878,0.0,0.0,0.0,0.949808515478,0.31283187805
1634830744480070656,-0.690454810258,-0.424656879495,0.0,0.0,0.0,0.949824070042,0.31278464791
1634830744480084212,-0.691954288436,-0.423549200477,0.0,0.0,0.0,0.949821183293,0.312793413883
1634830744524110804,-0.693317995751,-0.422541539415,0.0,0.0,0.0,0.949774909606,0.312933892514
1634830744524121083,-0.694784725332,-0.421456689363,0.0,0.0,0.0,0.949666001166,0.313264243459
1634830744567802181,-0.696386297573,-0.420270566782,0.0,0.0,0.0,0.949600456299,0.313462874031
1634830744567818312,-0.697910036735,-0.419141745577,0.0,0.0,0.0,0.949622500366,0.313396086126
1634830744611834233,-0.699737407376,-0.417788412337,0.0,0.0,0.0,0.949662686276,0.313274292425
1634830744611850283,-0.701281059637,-0.416646001358,0.0,0.0,0.0,0.94969092174,0.3131886862
1634830744652894541,-0.702773055448,-0.415541637709,0.0,0.0,0.0,0.949669315949,0.313254194458
1634830744652916332,-0.704206745702,-0.414479925786,0.0,0.0,0.0,0.949616590822,0.313413992085
1634830744653774426,-0.705614337937,-0.413436981148,0.0,0.0,0.0,0.949563888704,0.313573629742
1634830744672851594,-0.70720230672,-0.412259547941,0.0,0.0,0.0,0.949510810296,0.313734316152
1634830744693972191,-0.70890615946,-0.410995883424,0.0,0.0,0.0,0.949532524074,0.313668592189
1634830744750168807,-0.710558613933,-0.409771045607,0.0,0.0,0.0,0.949604321832,0.313451163594
1634830744750180369,-0.711998571387,-0.40870459089,0.0,0.0,0.0,0.94962028121,0.313402810318
1634830744798877321,-0.713509558775,-0.407585554602,0.0,0.0,0.0,0.949642345981,0.313335945464
1634830744798886929,-0.714762233086,-0.406657468399,0.0,0.0,0.0,0.949589956286,0.313494680849
1634830744799343263,-0.716305135412,-0.405513667708,0.0,0.0,0.0,0.949530727244,0.313674031471
1634830744813140768,-0.717802305978,-0.404402333449,0.0,0.0,0.0,0.949402722886,0.314061251632
1634830744833882809,-0.719356984623,-0.403247864161,0.0,0.0,0.0,0.949443518629,0.313937899803
1634830744875825095,-0.721092448964,-0.401959458104,0.0,0.0,0.0,0.949483948802,0.31381560026
1634830744875836697,-0.722705784973,-0.40076264873,0.0,0.0,0.0,0.949518348238,0.313711501797
1634830744919719536,-0.724319360092,-0.399566161753,0.0,0.0,0.0,0.94955273626,0.313607399564
1634830744919730497,-0.725700591942,-0.39854152312,0.0,0.0,0.0,0.949475035041,0.31384256855
1634830744964207652,-0.72715228897,-0.397463541895,0.0,0.0,0.0,0.949403397533,0.314059212177
1634830744964216799,-0.728829274051,-0.396217339713,0.0,0.0,0.0,0.949362586028,0.314182558793
1634830745012146138,-0.730415793144,-0.395038330271,0.0,0.0,0.0,0.949397075673,0.314078322564
1634830745012162580,-0.732157487229,-0.393744969723,0.0,0.0,0.0,0.949468792455,0.313861453756
1634830745052770631,-0.733725515911,-0.392581414279,0.0,0.0,0.0,0.949484523052,0.313813862798
1634830745052783726,-0.735241997321,-0.391456107523,0.0,0.0,0.0,0.949462824192,0.313879507897
1634830745053823764,-0.736571063467,-0.390468938276,0.0,0.0,0.0,0.949360111331,0.314190036463
1634830745072642163,-0.738054282338,-0.389366095831,0.0,0.0,0.0,0.949307128694,0.314350084158
1634830745092592164,-0.739627335068,-0.388195586997,0.0,0.0,0.0,0.949266479558,0.314472814068
1634830745136659183,-0.741226019889,-0.387006112839,0.0,0.0,0.0,0.949326034515,0.314292984637
1634830745136802654,-0.742851088185,-0.385798307519,0.0,0.0,0.0,0.949398025226,0.314075452237
1634830745183776664,-0.744354088004,-0.38468217881,0.0,0.0,0.0,0.94946394795,0.313876108591
1634830745183787033,-0.745702611838,-0.383681234762,0.0,0.0,0.0,0.949467593836,0.313865079702
1634830745227819936,-0.747128522132,-0.382622548556,0.0,0.0,0.0,0.949421036736,0.314005883708
1634830745227834233,-0.748618651332,-0.381515398648,0.0,0.0,0.0,0.949336761291,0.314260582419
1634830745271785232,-0.750224207066,-0.380321402331,0.0,0.0,0.0,0.949327384799,0.314288906056
1634830745271801343,-0.751965035991,-0.379026393763,0.0,0.0,0.0,0.949286418379,0.314412620424
1634830745313083461,-0.753576822552,-0.377827552259,0.0,0.0,0.0,0.949333410855,0.314270703431
1634830745313096385,-0.755150247645,-0.376657920357,0.0,0.0,0.0,0.949380457092,0.314128552813
1634830745317730396,-0.756607780338,-0.375574508087,0.0,0.0,0.0,0.949352586891,0.314212771484
1634830745332767087,-0.757994205671,-0.374543466044,0.0,0.0,0.0,0.949293522381,0.314391170941
1634830745352431998,-0.759528568221,-0.373401724751,0.0,0.0,0.0,0.949252943002,0.314513672521
1634830745395882749,-0.761133515091,-0.372206856422,0.0,0.0,0.0,0.949231020561,0.314579830259
1634830745395896696,-0.762983323944,-0.370829879752,0.0,0.0,0.0,0.949283841807,0.314420399599
1634830745439797149,-0.764479147665,-0.369717431918,0.0,0.0,0.0,0.949318532616,0.314315643313
1634830745439809703,-0.766033157643,-0.36856200894,0.0,0.0,0.0,0.949346836951,0.314230143638
1634830745484694590,-0.767496976405,-0.367473610656,0.0,0.0,0.0,0.949325209333,0.3142954771
1634830745484710530,-0.768947736203,-0.3663944759,0.0,0.0,0.0,0.949278538372,0.314436411037
1634830745527927188,-0.770559115779,-0.36519449658,0.0,0.0,0.0,0.949187637581,0.314710706304
