%time,field.position.x,field.position.y,field.position.z,field.orientation.x,field.orientation.y,field.orientation.z,field.orientation.w
1634830866071677473,-0.26139414004,-0.695368640663,0.0,0.0,0.0,0.950015756207,0.312201958608
1634830866092717345,-0.26139414004,-0.695368640663,0.0,0.0,0.0,0.950015756207,0.312201958608
1634830866112443461,-0.26139414004,-0.695368640663,0.0,0.0,0.0,0.950015756207,0.312201958608
1634830866132464966,-0.26139414004,-0.695368640663,0.0,0.0,0.0,0.950015756207,0.312201958608
1634830866151972598,-0.26139414004,-0.695368640663,0.0,0.0,0.0,0.950015756207,0.312201958608
1634830866171833209,-0.26139414004,-0.695368640663,0.0,0.0,0.0,0.950015756207,0.312201958608
1634830866192078969,-0.26139414004,-0.695368640663,0.0,0.0,0.0,0.950015756207,0.312201958608
1634830866211555292,-0.26139414004,-0.695368640663,0.0,0.0,0.0,0.950015756207,0.312201958608
1634830866231438355,-0.26139414004,-0.695368640663,0.0,0.0,0.0,0.950015756207,0.312201958608
1634830866252639052,-0.26139414004,-0.695368640663,0.0,0.0,0.0,0.950015756207,0.312201958608
1634830866271923913,-0.26139414004,-0.695368640663,0.0,0.0,0.0,0.950015756207,0.312201958608
1634830866291702027,-0.26139414004,-0.695368640663,0.0,0.0,0.0,0.950015756207,0.312201958608
1634830866311688155,-0.26139414004,-0.695368640663,0.0,0.0,0.0,0.950015756207,0.312201958608
1634830866331942521,-0.26139414004,-0.695368640663,0.0,0.0,0.0,0.950015756207,0.312201958608
1634830866375914468,-0.26139414004,-0.695368640663,0.0,0.0,0.0,0.950015756207,0.312201958608
1634830866375927412,-0.26139414004,-0.695368640663,0.0,0.0,0.0,0.950015756207,0.312201958608
1634830866420492221,-0.26139414004,-0.695368640663,0.0,0.0,0.0,0.950015756207,0.312201958608
1634830866420504334,-0.26139414004,-0.695368640663,0.0,0.0,0.0,0.950015756207,0.312201958608
1634830866463859914,-0.26139414004,-0.695368640663,0.0,0.0,0.0,0.950015756207,0.312201958608
1634830866463879381,-0.26139414004,-0.695368640663,0.0,0.0,0.0,0.950015756207,0.312201958608
1634830866507754474,-0.26139414004,-0.695368640663,0.0,0.0,0.0,0.950015756207,0.312201958608
1634830866507773219,-0.26139414004,-0.695368640663,0.0,0.0,0.0,0.950015756207,0.312201958608
1634830866551349748,-0.26139414004,-0.695368640663,0.0,0.0,0.0,0.950015756207,0.312201958608
1634830866551362211,-0.26139414004,-0.695368640663,0.0,0.0,0.0,0.950015756207,0.312201958608
1634830866551990771,-0.26139414004,-0.695368640663,0.0,0.0,0.0,0.950015756207,0.312201958608
1634830866571445555,-0.26139414004,-0.695368640663,0.0,0.0,0.0,0.950015756207,0.312201958608
1634830866591506614,-0.26139414004,-0.695368640663,0.0,0.0,0.0,0.950015756207,0.312201958608
1634830866635826919,-0.26139414004,-0.695368640663,0.0,0.0,0.0,0.950015756207,0.312201958608
1634830866635839363,-0.26139414004,-0.695368640663,0.0,0.0,0.0,0.950015756207,0.312201958608
1634830866679731228,-0.26139414004,-0.695368640663,0.0,0.0,0.0,0.950015756207,0.312201958608
1634830866679742579,-0.26139414004,-0.695368640663,0.0,0.0,0.0,0.950015756207,0.312201958608
1634830866723685100,-0.26139414004,-0.695368640663,0.0,0.0,0.0,0.950015756207,0.312201958608
1634830866723696351,-0.26139414004,-0.695368640663,0.0,0.0,0.0,0.950015756207,0.312201958608
1634830866767783156,-0.26139414004,-0.695368640663,0.0,0.0,0.0,0.950015756207,0.312201958608
1634830866767792293,-0.26139414004,-0.695368640663,0.0,0.0,0.0,0.950015756207,0.312201958608
1634830866812951108,-0.26139414004,-0.695368640663,0.0,0.0,0.0,0.950015756207,0.312201958608
1634830866812961388,-0.26139414004,-0.695368640663,0.0,0.0,0.0,0.950015756207,0.312201958608
1634830866813115088,-0.26139414004,-0.695368640663,0.0,0.0,0.0,0.950015756207,0.312201958608
1634830866831640671,-0.26139414004,-0.695368640663,0.0,0.0,0.0,0.950015756207,0.312201958608
1634830866851685750,-0.26139414004,-0.695368640663,0.0,0.0,0.0,0.950015756207,0.312201958608
1634830866895859809,-0.26139414004,-0.695368640663,0.0,0.0,0.0,0.950015756207,0.312201958608
1634830866895869517,-0.26139414004,-0.695368640663,0.0,0.0,0.0,0.950015756207,0.312201958608
1634830866939805927,-0.26139414004,-0.695368640663,0.0,0.0,0.0,0.950015756207,0.312201958608
1634830866939818851,-0.26139414004,-0.695368640663,0.0,0.0,0.0,0.950015756207,0.312201958608
1634830866983805225,-0.26139414004,-0.695368640663,0.0,0.0,0.0,0.950015756207,0.312201958608
1634830866983817068,-0.26139414004,-0.695368640663,0.0,0.0,0.0,0.950015756207,0.312201958608
1634830867027924482,-0.26139414004,-0.695368640663,0.0,0.0,0.0,0.950015756207,0.312201958608
1634830867027935162,-0.26139414004,-0.695368640663,0.0,0.0,0.0,0.950015756207,0.312201958608
1634830867072240288,-0.26139414004,-0.695368640663,0.0,0.0,0.0,0.950015756207,0.312201958608
1634830867072249635,-0.26139414004,-0.695368640663,0.0,0.0,0.0,0.950015756207,0.312201958608
1634830867072844611,-0.26139414004,-0.695368640663,0.0,0.0,0.0,0.950015756207,0.312201958608
1634830867092518899,-0.26139414004,-0.695368640663,0.0,0.0,0.0,0.950015756207,0.312201958608
1634830867112800497,-0.26139414004,-0.695368640663,0.0,0.0,0.0,0.950015756207,0.312201958608
1634830867155841211,-0.26139414004,-0.695368640663,0.0,0.0,0.0,0.950015756207,0.312201958608
1634830867155854987,-0.26139414004,-0.695368640663,0.0,0.0,0.0,0.950015756207,0.312201958608
1634830867199729298,-0.26139414004,-0.695368640663,0.0,0.0,0.0,0.950015756207,0.312201958608
1634830867199742904,-0.26139414004,-0.695368640663,0.0,0.0,0.0,0.950015756207,0.312201958608
1634830867243892537,-0.26139414004,-0.695368640663,0.0,0.0,0.0,0.950015756207,0.312201958608
1634830867243902767,-0.26139414004,-0.695368640663,0.0,0.0,0.0,0.950015756207,0.312201958608
1634830867288469208,-0.26139414004,-0.695368640663,0.0,0.0,0.0,0.950015756207,0.312201958608
1634830867288479668,-0.26139414004,-0.695368640663,0.0,0.0,0.0,0.950015756207,0.312201958608
1634830867331174297,-0.26139414004,-0.695368640663,0.0,0.0,0.0,0.950015756207,0.312201958608
1634830867331184907,-0.26139414004,-0.695368640663,0.0,0.0,0.0,0.950015756207,0.312201958608
1634830867332051047,-0.26139414004,-0.695368640663,0.0,0.0,0.0,0.950015756207,0.312201958608
1634830867350946621,-0.26139414004,-0.695368640663,0.0,0.0,0.0,0.950015756207,0.312201958608
1634830867371168466,-0.26139414004,-0.695368640663,0.0,0.0,0.0,0.950015756207,0.312201958608
1634830867417454501,-0.26139414004,-0.695368640663,0.0,0.0,0.0,0.950015756207,0.312201958608
1634830867417465462,-0.26139414004,-0.695368640663,0.0,0.0,0.0,0.950015756207,0.312201958608
1634830867459718605,-0.26139414004,-0.695368640663,0.0,0.0,0.0,0.950015756207,0.312201958608
1634830867459729356,-0.26139414004,-0.695368640663,0.0,0.0,0.0,0.950015756207,0.312201958608
1634830867503727602,-0.26139414004,-0.695368640663,0.0,0.0,0.0,0.950015756207,0.312201958608
1634830867503738683,-0.26139414004,-0.695368640663,0.0,0.0,0.0,0.950015756207,0.312201958608
1634830867547733994,-0.26139414004,-0.695368640663,0.0,0.0,0.0,0.950015756207,0.312201958608
1634830867547749443,-0.26139414004,-0.695368640663,0.0,0.0,0.0,0.950015756207,0.312201958608
1634830867591090255,-0.26139414004,-0.695368640663,0.0,0.0,0.0,0.950015756207,0.312201958608
1634830867591105534,-0.26139414004,-0.695368640663,0.0,0.0,0.0,0.950015756207,0.312201958608
1634830867592031988,-0.26139414004,-0.695368640663,0.0,0.0,0.0,0.950015756207,0.312201958608
1634830867610816271,-0.26139414004,-0.695368640663,0.0,0.0,0.0,0.950015756207,0.312201958608
1634830867631827910,-0.26139414004,-0.695368640663,0.0,0.0,0.0,0.950015756207,0.312201958608
1634830867675847286,-0.26139414004,-0.695368640663,0.0,0.0,0.0,0.950015756207,0.312201958608
1634830867675860812,-0.26139414004,-0.695368640663,0.0,0.0,0.0,0.950015756207,0.312201958608
1634830867719804475,-0.26139414004,-0.695368640663,0.0,0.0,0.0,0.950015756207,0.312201958608
1634830867719816538,-0.26139414004,-0.695368640663,0.0,0.0,0.0,0.950015756207,0.312201958608
1634830867764397637,-0.26139414004,-0.695368640663,0.0,0.0,0.0,0.950015756207,0.312201958608
1634830867764408097,-0.26139414004,-0.695368640663,0.0,0.0,0.0,0.950015756207,0.312201958608
1634830867807772805,-0.26139414004,-0.695368640663,0.0,0.0,0.0,0.950015756207,0.312201958608
1634830867807789106,-0.26139414004,-0.695368640663,0.0,0.0,0.0,0.950015756207,0.312201958608
1634830867851050577,-0.26139414004,-0.695368640663,0.0,0.0,0.0,0.950015756207,0.312201958608
1634830867851059995,-0.26139414004,-0.695368640663,0.0,0.0,0.0,0.950015756207,0.312201958608
1634830867852118268,-0.26139414004,-0.695368640663,0.0,0.0,0.0,0.950015756207,0.312201958608
1634830867870888936,-0.26139414004,-0.695368640663,0.0,0.0,0.0,0.950015756207,0.312201958608
1634830867891471613,-0.26139414004,-0.695368640663,0.0,0.0,0.0,0.950015756207,0.312201958608
1634830867935779385,-0.26139414004,-0.695368640663,0.0,0.0,0.0,0.950015756207,0.312201958608
1634830867935789094,-0.26139414004,-0.695368640663,0.0,0.0,0.0,0.950015756207,0.312201958608
1634830867979812227,-0.26139414004,-0.695368640663,0.0,0.0,0.0,0.950015756207,0.312201958608
1634830867979824029,-0.26139414004,-0.695368640663,0.0,0.0,0.0,0.950015756207,0.312201958608
1634830868023873663,-0.26139414004,-0.695368640663,0.0,0.0,0.0,0.950015756207,0.312201958608
1634830868023887178,-0.26139414004,-0.695368640663,0.0,0.0,0.0,0.950015756207,0.312201958608
1634830868067781178,-0.26139414004,-0.695368640663,0.0,0.0,0.0,0.950015756207,0.312201958608
1634830868067791437,-0.26139414004,-0.695368640663,0.0,0.0,0.0,0.950015756207,0.312201958608
1634830868112039456,-0.26139414004,-0.695368640663,0.0,0.0,0.0,0.950015756207,0.312201958608
1634830868112054123,-0.26139414004,-0.695368640663,0.0,0.0,0.0,0.950015756207,0.312201958608
1634830868151617566,-0.26139414004,-0.695368640663,0.0,0.0,0.0,0.950015756207,0.312201958608
1634830868151626413,-0.26139414004,-0.695368640663,0.0,0.0,0.0,0.950015756207,0.312201958608
1634830868152579497,-0.26139414004,-0.695368640663,0.0,0.0,0.0,0.950015756207,0.312201958608
1634830868171542007,-0.26139414004,-0.695368640663,0.0,0.0,0.0,0.950015756207,0.312201958608
1634830868191616082,-0.26139414004,-0.695368640663,0.0,0.0,0.0,0.950015756207,0.312201958608
1634830868239875103,-0.26139414004,-0.695368640663,0.0,0.0,0.0,0.950015756207,0.312201958608
1634830868239890993,-0.26139414004,-0.695368640663,0.0,0.0,0.0,0.950015756207,0.312201958608
1634830868287756609,-0.26139414004,-0.695368640663,0.0,0.0,0.0,0.950015756207,0.312201958608
1634830868287767329,-0.26139414004,-0.695368640663,0.0,0.0,0.0,0.950015756207,0.312201958608
1634830868330814486,-0.26139414004,-0.695368640663,0.0,0.0,0.0,0.950015756207,0.312201958608
1634830868330992553,-0.26139414004,-0.695368640663,0.0,0.0,0.0,0.950015756207,0.312201958608
1634830868332707699,-0.26139414004,-0.695368640663,0.0,0.0,0.0,0.950015756207,0.312201958608
1634830868352181097,-0.26139414004,-0.695368640663,0.0,0.0,0.0,0.950015756207,0.312201958608
1634830868370460204,-0.26139414004,-0.695368640663,0.0,0.0,0.0,0.950015756207,0.312201958608
1634830868412055713,-0.26139414004,-0.695368640663,0.0,0.0,0.0,0.950015756207,0.312201958608
1634830868412065491,-0.26139414004,-0.695368640663,0.0,0.0,0.0,0.950015756207,0.312201958608
1634830868455738642,-0.26139414004,-0.695368640663,0.0,0.0,0.0,0.950015756207,0.312201958608
1634830868455753921,-0.26139414004,-0.695368640663,0.0,0.0,0.0,0.950015756207,0.312201958608
1634830868499747699,-0.26139414004,-0.695368640663,0.0,0.0,0.0,0.950015756207,0.312201958608
1634830868499756906,-0.26139414004,-0.695368640663,0.0,0.0,0.0,0.950015756207,0.312201958608
1634830868543841556,-0.26139414004,-0.695368640663,0.0,0.0,0.0,0.950015756207,0.312201958608
1634830868543849511,-0.26139414004,-0.695368640663,0.0,0.0,0.0,0.950015756207,0.312201958608
1634830868587818492,-0.26139414004,-0.695368640663,0.0,0.0,0.0,0.950015756207,0.312201958608
1634830868587830906,-0.26139414004,-0.695368640663,0.0,0.0,0.0,0.950015756207,0.312201958608
1634830868631071488,-0.26139414004,-0.695368640663,0.0,0.0,0.0,0.950015756207,0.312201958608
1634830868631079112,-0.26139414004,-0.695368640663,0.0,0.0,0.0,0.950015756207,0.312201958608
1634830868632077281,-0.26139414004,-0.695368640663,0.0,0.0,0.0,0.950015756207,0.312201958608
1634830868651160602,-0.26139414004,-0.695368640663,0.0,0.0,0.0,0.950015756207,0.312201958608
1634830868670171673,-0.26139414004,-0.695368640663,0.0,0.0,0.0,0.950015756207,0.312201958608
1634830868711958735,-0.26139414004,-0.695368640663,0.0,0.0,0.0,0.950015756207,0.312201958608
1634830868711971279,-0.26139414004,-0.695368640663,0.0,0.0,0.0,0.950015756207,0.312201958608
1634830868755760148,-0.26139414004,-0.695368640663,0.0,0.0,0.0,0.950015756207,0.312201958608
1634830868755770317,-0.26139414004,-0.695368640663,0.0,0.0,0.0,0.950015756207,0.312201958608
1634830868800534113,-0.26139414004,-0.695368640663,0.0,0.0,0.0,0.950015756207,0.312201958608
1634830868800548510,-0.26139414004,-0.695368640663,0.0,0.0,0.0,0.950015756207,0.312201958608
1634830868843871468,-0.26139414004,-0.695368640663,0.0,0.0,0.0,0.950015756207,0.312201958608
1634830868843883882,-0.26139414004,-0.695368640663,0.0,0.0,0.0,0.950015756207,0.312201958608
1634830868889108580,-0.26139414004,-0.695368640663,0.0,0.0,0.0,0.950015756207,0.312201958608
1634830868889117607,-0.26139414004,-0.695368640663,0.0,0.0,0.0,0.950015756207,0.312201958608
1634830868931022381,-0.26139414004,-0.695368640663,0.0,0.0,0.0,0.950015756207,0.312201958608
1634830868931031979,-0.26139414004,-0.695368640663,0.0,0.0,0.0,0.950015756207,0.312201958608
1634830868931831071,-0.26139414004,-0.695368640663,0.0,0.0,0.0,0.950015756207,0.312201958608
1634830868953319032,-0.26139414004,-0.695368640663,0.0,0.0,0.0,0.950015756207,0.312201958608
1634830868970271739,-0.26139414004,-0.695368640663,0.0,0.0,0.0,0.950015756207,0.312201958608
1634830869011803406,-0.26139414004,-0.695368640663,0.0,0.0,0.0,0.950015756207,0.312201958608
1634830869011812053,-0.26139414004,-0.695368640663,0.0,0.0,0.0,0.950015756207,0.312201958608
1634830869055869481,-0.26139414004,-0.695368640663,0.0,0.0,0.0,0.950015756207,0.312201958608
1634830869055882496,-0.26139414004,-0.695368640663,0.0,0.0,0.0,0.950015756207,0.312201958608
1634830869099893065,-0.26139414004,-0.695368640663,0.0,0.0,0.0,0.950015756207,0.312201958608
1634830869099907002,-0.26139414004,-0.695368640663,0.0,0.0,0.0,0.950015756207,0.312201958608
1634830869143748462,-0.26139414004,-0.695368640663,0.0,0.0,0.0,0.950015756207,0.312201958608
1634830869143761817,-0.26139414004,-0.695368640663,0.0,0.0,0.0,0.950015756207,0.312201958608
1634830869188638836,-0.26139414004,-0.695368640663,0.0,0.0,0.0,0.950015756207,0.312201958608
1634830869188653504,-0.26139414004,-0.695368640663,0.0,0.0,0.0,0.950015756207,0.312201958608
1634830869230730564,-0.26139414004,-0.695368640663,0.0,0.0,0.0,0.950015756207,0.312201958608
1634830869230740603,-0.26139414004,-0.695368640663,0.0,0.0,0.0,0.950015756207,0.312201958608
1634830869231765894,-0.26139414004,-0.695368640663,0.0,0.0,0.0,0.950015756207,0.312201958608
1634830869249962926,-0.26139414004,-0.695368640663,0.0,0.0,0.0,0.950015756207,0.312201958608
1634830869270168990,-0.26139414004,-0.695368640663,0.0,0.0,0.0,0.950015756207,0.312201958608
1634830869317470298,-0.26139414004,-0.695368640663,0.0,0.0,0.0,0.950015756207,0.312201958608
1634830869317478995,-0.26139414004,-0.695368640663,0.0,0.0,0.0,0.950015756207,0.312201958608
1634830869364074146,-0.26139414004,-0.695368640663,0.0,0.0,0.0,0.950015756207,0.312201958608
1634830869364088483,-0.26139414004,-0.695368640663,0.0,0.0,0.0,0.950015756207,0.312201958608
1634830869407807291,-0.26139414004,-0.695368640663,0.0,0.0,0.0,0.950015756207,0.312201958608
1634830869407816228,-0.26139414004,-0.695368640663,0.0,0.0,0.0,0.950015756207,0.312201958608
1634830869450859767,-0.26139414004,-0.695368640663,0.0,0.0,0.0,0.950015756207,0.312201958608
1634830869450870236,-0.26139414004,-0.695368640663,0.0,0.0,0.0,0.950015756207,0.312201958608
1634830869451828049,-0.26139414004,-0.695368640663,0.0,0.0,0.0,0.950015756207,0.312201958608
1634830869470175886,-0.26139414004,-0.695368640663,0.0,0.0,0.0,0.950015756207,0.312201958608
1634830869490453407,-0.26139414004,-0.695368640663,0.0,0.0,0.0,0.950015756207,0.312201958608
1634830869531781369,-0.26139414004,-0.695368640663,0.0,0.0,0.0,0.950015756207,0.312201958608
1634830869531845921,-0.26139414004,-0.695368640663,0.0,0.0,0.0,0.950015756207,0.312201958608
1634830869575817898,-0.26139414004,-0.695368640663,0.0,0.0,0.0,0.950015756207,0.312201958608
1634830869575826814,-0.26139414004,-0.695368640663,0.0,0.0,0.0,0.950015756207,0.312201958608
1634830869619766029,-0.26139414004,-0.695368640663,0.0,0.0,0.0,0.950015756207,0.312201958608
1634830869619775577,-0.26139414004,-0.695368640663,0.0,0.0,0.0,0.950015756207,0.312201958608
1634830869671446265,-0.26139414004,-0.695368640663,0.0,0.0,0.0,0.950015756207,0.312201958608
1634830869671457517,-0.26139414004,-0.695368640663,0.0,0.0,0.0,0.950015756207,0.312201958608
1634830869710144019,-0.26139414004,-0.695368640663,0.0,0.0,0.0,0.950015756207,0.312201958608
1634830869710157885,-0.26139414004,-0.695368640663,0.0,0.0,0.0,0.950015756207,0.312201958608
1634830869710976554,-0.26139414004,-0.695368640663,0.0,0.0,0.0,0.950015756207,0.312201958608
1634830869730492352,-0.26139414004,-0.695368640663,0.0,0.0,0.0,0.950015756207,0.312201958608
1634830869751443337,-0.26139414004,-0.695368640663,0.0,0.0,0.0,0.950015756207,0.312201958608
1634830869797105833,-0.26139414004,-0.695368640663,0.0,0.0,0.0,0.950015756207,0.312201958608
1634830869797256108,-0.26139414004,-0.695368640663,0.0,0.0,0.0,0.950015756207,0.312201958608
1634830869839744658,-0.26139414004,-0.695368640663,0.0,0.0,0.0,0.950015756207,0.312201958608
1634830869839753975,-0.26139414004,-0.695368640663,0.0,0.0,0.0,0.950015756207,0.312201958608
1634830869883746039,-0.26139414004,-0.695368640663,0.0,0.0,0.0,0.950015756207,0.312201958608
1634830869883757480,-0.26139414004,-0.695368640663,0.0,0.0,0.0,0.950015756207,0.312201958608
1634830869927878659,-0.26139414004,-0.695368640663,0.0,0.0,0.0,0.950015756207,0.312201958608
1634830869927920238,-0.26139414004,-0.695368640663,0.0,0.0,0.0,0.950015756207,0.312201958608
1634830869972092343,-0.26139414004,-0.695368640663,0.0,0.0,0.0,0.950015756207,0.312201958608
1634830869972101661,-0.26139414004,-0.695368640663,0.0,0.0,0.0,0.950015756207,0.312201958608
1634830869972993158,-0.26139414004,-0.695368640663,0.0,0.0,0.0,0.950015756207,0.312201958608
1634830869989741508,-0.26139414004,-0.695368640663,0.0,0.0,0.0,0.950015756207,0.312201958608
1634830870010472267,-0.26139414004,-0.695368640663,0.0,0.0,0.0,0.950015756207,0.312201958608
1634830870051991169,-0.26139414004,-0.695368640663,0.0,0.0,0.0,0.950015756207,0.312201958608
1634830870052003603,-0.26139414004,-0.695368640663,0.0,0.0,0.0,0.950015756207,0.312201958608
1634830870095948088,-0.26139414004,-0.695368640663,0.0,0.0,0.0,0.950015756207,0.312201958608
1634830870095958758,-0.26139414004,-0.695368640663,0.0,0.0,0.0,0.950015756207,0.312201958608
1634830870144798749,-0.26139414004,-0.695368640663,0.0,0.0,0.0,0.950015756207,0.312201958608
1634830870144808638,-0.26139414004,-0.695368640663,0.0,0.0,0.0,0.950015756207,0.312201958608
1634830870190052762,-0.26139414004,-0.695368640663,0.0,0.0,0.0,0.950015756207,0.312201958608
1634830870190062199,-0.26139414004,-0.695368640663,0.0,0.0,0.0,0.950015756207,0.312201958608
1634830870190799425,-0.26139414004,-0.695368640663,0.0,0.0,0.0,0.950015756207,0.312201958608
1634830870210492598,-0.26139414004,-0.695368640663,0.0,0.0,0.0,0.950015756207,0.312201958608
1634830870230011822,-0.26139414004,-0.695368640663,0.0,0.0,0.0,0.950015756207,0.312201958608
1634830870272106276,-0.26139414004,-0.695368640663,0.0,0.0,0.0,0.950015756207,0.312201958608
1634830870272117688,-0.26139414004,-0.695368640663,0.0,0.0,0.0,0.950015756207,0.312201958608
1634830870315763546,-0.26139414004,-0.695368640663,0.0,0.0,0.0,0.950015756207,0.312201958608
1634830870315780188,-0.26139414004,-0.695368640663,0.0,0.0,0.0,0.950015756207,0.312201958608
1634830870359764708,-0.26139414004,-0.695368640663,0.0,0.0,0.0,0.950015756207,0.312201958608
1634830870359773465,-0.26139414004,-0.695368640663,0.0,0.0,0.0,0.950015756207,0.312201958608
1634830870403847825,-0.26139414004,-0.695368640663,0.0,0.0,0.0,0.950015756207,0.312201958608
1634830870403856021,-0.26139414004,-0.695368640663,0.0,0.0,0.0,0.950015756207,0.312201958608
1634830870451001965,-0.26139414004,-0.695368640663,0.0,0.0,0.0,0.950015756207,0.312201958608
1634830870451014138,-0.26139414004,-0.695368640663,0.0,0.0,0.0,0.950015756207,0.312201958608
1634830870452218818,-0.26139414004,-0.695368640663,0.0,0.0,0.0,0.950015756207,0.312201958608
1634830870470350116,-0.26139414004,-0.695368640663,0.0,0.0,0.0,0.950015756207,0.312201958608
1634830870490150443,-0.26139414004,-0.695368640663,0.0,0.0,0.0,0.950015756207,0.312201958608
1634830870532061859,-0.26139414004,-0.695368640663,0.0,0.0,0.0,0.950015756207,0.312201958608
1634830870532074653,-0.26139414004,-0.695368640663,0.0,0.0,0.0,0.950015756207,0.312201958608
1634830870577140890,-0.26139414004,-0.695368640663,0.0,0.0,0.0,0.950015756207,0.312201958608
1634830870577156029,-0.26139414004,-0.695368640663,0.0,0.0,0.0,0.950015756207,0.312201958608
1634830870620938056,-0.26139414004,-0.695368640663,0.0,0.0,0.0,0.950015756207,0.312201958608
1634830870620944698,-0.26139414004,-0.695368640663,0.0,0.0,0.0,0.950015756207,0.312201958608
1634830870663780906,-0.26139414004,-0.695368640663,0.0,0.0,0.0,0.950015756207,0.312201958608
1634830870663940448,-0.26139414004,-0.695368640663,0.0,0.0,0.0,0.950015756207,0.312201958608
1634830870707845617,-0.26139414004,-0.695368640663,0.0,0.0,0.0,0.950015756207,0.312201958608
1634830870707855817,-0.26139414004,-0.695368640663,0.0,0.0,0.0,0.950015756207,0.312201958608
1634830870749197466,-0.26139414004,-0.695368640663,0.0,0.0,0.0,0.950015756207,0.312201958608
1634830870749207205,-0.26139414004,-0.695368640663,0.0,0.0,0.0,0.950015756207,0.312201958608
1634830870751702618,-0.26139414004,-0.695368640663,0.0,0.0,0.0,0.950015756207,0.312201958608
1634830870770261844,-0.26139414004,-0.695368640663,0.0,0.0,0.0,0.950015756207,0.312201958608
1634830870789681049,-0.26139414004,-0.695368640663,0.0,0.0,0.0,0.950015756207,0.312201958608
1634830870831972244,-0.26139414004,-0.695368640663,0.0,0.0,0.0,0.950015756207,0.312201958608
1634830870831982293,-0.26139414004,-0.695368640663,0.0,0.0,0.0,0.950015756207,0.312201958608
1634830870875853409,-0.26139414004,-0.695368640663,0.0,0.0,0.0,0.950015756207,0.312201958608
1634830870875865802,-0.26139414004,-0.695368640663,0.0,0.0,0.0,0.950015756207,0.312201958608
1634830870920268214,-0.26139414004,-0.695368640663,0.0,0.0,0.0,0.950015756207,0.312201958608
1634830870920279215,-0.26139414004,-0.695368640663,0.0,0.0,0.0,0.950015756207,0.312201958608
1634830870963808102,-0.26139414004,-0.695368640663,0.0,0.0,0.0,0.950015756207,0.312201958608
1634830870964011347,-0.26139414004,-0.695368640663,0.0,0.0,0.0,0.950015756207,0.312201958608
1634830871008217166,-0.26139414004,-0.695368640663,0.0,0.0,0.0,0.950015756207,0.312201958608
1634830871008227476,-0.26139414004,-0.695368640663,0.0,0.0,0.0,0.950015756207,0.312201958608
1634830871049096189,-0.26139414004,-0.695368640663,0.0,0.0,0.0,0.950015756207,0.312201958608
1634830871049107269,-0.26139414004,-0.695368640663,0.0,0.0,0.0,0.950015756207,0.312201958608
1634830871051134437,-0.26139414004,-0.695368640663,0.0,0.0,0.0,0.950015756207,0.312201958608
1634830871070087981,-0.26139414004,-0.695368640663,0.0,0.0,0.0,0.950015756207,0.312201958608
1634830871089093653,-0.26139414004,-0.695368640663,0.0,0.0,0.0,0.950015756207,0.312201958608
1634830871131725142,-0.26139414004,-0.695368640663,0.0,0.0,0.0,0.950015756207,0.312201958608
1634830871131735712,-0.26139414004,-0.695368640663,0.0,0.0,0.0,0.950015756207,0.312201958608
1634830871177342053,-0.26139414004,-0.695368640663,0.0,0.0,0.0,0.950015756207,0.312201958608
1634830871177495493,-0.26139414004,-0.695368640663,0.0,0.0,0.0,0.950015756207,0.312201958608
1634830871220890527,-0.26139414004,-0.695368640663,0.0,0.0,0.0,0.950015756207,0.312201958608
1634830871220898553,-0.26139414004,-0.695368640663,0.0,0.0,0.0,0.950015756207,0.312201958608
1634830871264157630,-0.26139414004,-0.695368640663,0.0,0.0,0.0,0.950015756207,0.312201958608
1634830871264166637,-0.26139414004,-0.695368640663,0.0,0.0,0.0,0.950015756207,0.312201958608
1634830871309475303,-0.26139414004,-0.695368640663,0.0,0.0,0.0,0.950015756207,0.312201958608
1634830871309487386,-0.26139414004,-0.695368640663,0.0,0.0,0.0,0.950015756207,0.312201958608
1634830871348813510,-0.26139414004,-0.695368640663,0.0,0.0,0.0,0.950015756207,0.312201958608
1634830871348828548,-0.26139414004,-0.695368640663,0.0,0.0,0.0,0.950015756207,0.312201958608
1634830871350148045,-0.26139414004,-0.695368640663,0.0,0.0,0.0,0.950015756207,0.312201958608
1634830871369085499,-0.26139414004,-0.695368640663,0.0,0.0,0.0,0.950015756207,0.312201958608
1634830871389070575,-0.26139414004,-0.695368640663,0.0,0.0,0.0,0.950015756207,0.312201958608
1634830871440620063,-0.26139414004,-0.695368640663,0.0,0.0,0.0,0.950015756207,0.312201958608
1634830871440783212,-0.26139414004,-0.695368640663,0.0,0.0,0.0,0.950015756207,0.312201958608
1634830871484443489,-0.26139414004,-0.695368640663,0.0,0.0,0.0,0.950015756207,0.312201958608
1634830871484478455,-0.26139414004,-0.695368640663,0.0,0.0,0.0,0.950015756207,0.312201958608
1634830871527816623,-0.26139414004,-0.695368640663,0.0,0.0,0.0,0.950015756207,0.312201958608
1634830871527834066,-0.26139414004,-0.695368640663,0.0,0.0,0.0,0.950015756207,0.312201958608
1634830871568984301,-0.26139414004,-0.695368640663,0.0,0.0,0.0,0.950015756207,0.312201958608
1634830871568998117,-0.26139414004,-0.695368640663,0.0,0.0,0.0,0.950015756207,0.312201958608
1634830871570220491,-0.26139414004,-0.695368640663,0.0,0.0,0.0,0.950015756207,0.312201958608
1634830871588850672,-0.26139414004,-0.695368640663,0.0,0.0,0.0,0.950015756207,0.312201958608
1634830871608958401,-0.26139414004,-0.695368640663,0.0,0.0,0.0,0.950015756207,0.312201958608
1634830871653220767,-0.26139414004,-0.695368640663,0.0,0.0,0.0,0.950015756207,0.312201958608
1634830871653234443,-0.26139414004,-0.695368640663,0.0,0.0,0.0,0.950015756207,0.312201958608
1634830871695730226,-0.26139414004,-0.695368640663,0.0,0.0,0.0,0.950015756207,0.312201958608
1634830871695744543,-0.26139414004,-0.695368640663,0.0,0.0,0.0,0.950015756207,0.312201958608
1634830871739768839,-0.26139414004,-0.695368640663,0.0,0.0,0.0,0.950015756207,0.312201958608
1634830871739789848,-0.26139414004,-0.695368640663,0.0,0.0,0.0,0.950015756207,0.312201958608
1634830871783795427,-0.26139414004,-0.695368640663,0.0,0.0,0.0,0.950015756207,0.312201958608
1634830871783805727,-0.26139414004,-0.695368640663,0.0,0.0,0.0,0.950015756207,0.312201958608
1634830871827753728,-0.26139414004,-0.695368640663,0.0,0.0,0.0,0.950015756207,0.312201958608
1634830871827764308,-0.26139414004,-0.695368640663,0.0,0.0,0.0,0.950015756207,0.312201958608
1634830871868677216,-0.26139414004,-0.695368640663,0.0,0.0,0.0,0.950015756207,0.312201958608
1634830871868686994,-0.26139414004,-0.695368640663,0.0,0.0,0.0,0.950015756207,0.312201958608
1634830871869516424,-0.26139414004,-0.695368640663,0.0,0.0,0.0,0.950015756207,0.312201958608
1634830871888803398,-0.26139414004,-0.695368640663,0.0,0.0,0.0,0.950015756207,0.312201958608
1634830871909745787,-0.26139414004,-0.695368640663,0.0,0.0,0.0,0.950015756207,0.312201958608
1634830871953118499,-0.26139414004,-0.695368640663,0.0,0.0,0.0,0.950015756207,0.312201958608
1634830871953131824,-0.26139414004,-0.695368640663,0.0,0.0,0.0,0.950015756207,0.312201958608
1634830871999782010,-0.26139414004,-0.695368640663,0.0,0.0,0.0,0.950015756207,0.312201958608
1634830871999793141,-0.26139414004,-0.695368640663,0.0,0.0,0.0,0.950015756207,0.312201958608
1634830872047799333,-0.26139414004,-0.695368640663,0.0,0.0,0.0,0.950015756207,0.312201958608
1634830872047808550,-0.26139414004,-0.695368640663,0.0,0.0,0.0,0.950015756207,0.312201958608
1634830872090348085,-0.26139414004,-0.695368640663,0.0,0.0,0.0,0.950015756207,0.312201958608
1634830872090368604,-0.26139414004,-0.695368640663,0.0,0.0,0.0,0.950015756207,0.312201958608
1634830872091126859,-0.26139414004,-0.695368640663,0.0,0.0,0.0,0.950015756207,0.312201958608
1634830872109201359,-0.26139414004,-0.695368640663,0.0,0.0,0.0,0.950015756207,0.312201958608
1634830872128693382,-0.26139414004,-0.695368640663,0.0,0.0,0.0,0.950015756207,0.312201958608
1634830872171753654,-0.26139414004,-0.695368640663,0.0,0.0,0.0,0.950015756207,0.312201958608
1634830872171766909,-0.26139414004,-0.695368640663,0.0,0.0,0.0,0.950015756207,0.312201958608
1634830872215888608,-0.26139414004,-0.695368640663,0.0,0.0,0.0,0.950015756207,0.312201958608
1634830872215900411,-0.26139414004,-0.695368640663,0.0,0.0,0.0,0.950015756207,0.312201958608
1634830872263142105,-0.26139414004,-0.695368640663,0.0,0.0,0.0,0.950015756207,0.312201958608
1634830872263150291,-0.26139414004,-0.695368640663,0.0,0.0,0.0,0.950015756207,0.312201958608
1634830872309922568,-0.26139414004,-0.695368640663,0.0,0.0,0.0,0.950015756207,0.312201958608
1634830872309935122,-0.26139414004,-0.695368640663,0.0,0.0,0.0,0.950015756207,0.312201958608
1634830872311144010,-0.26139414004,-0.695368640663,0.0,0.0,0.0,0.950015756207,0.312201958608
1634830872328856695,-0.26139414004,-0.695368640663,0.0,0.0,0.0,0.950015756207,0.312201958608
1634830872349465031,-0.26139414004,-0.695368640663,0.0,0.0,0.0,0.950015756207,0.312201958608
1634830872391782415,-0.26139414004,-0.695368640663,0.0,0.0,0.0,0.950015756207,0.312201958608
1634830872391797364,-0.26139414004,-0.695368640663,0.0,0.0,0.0,0.950015756207,0.312201958608
1634830872435880942,-0.26139414004,-0.695368640663,0.0,0.0,0.0,0.950015756207,0.312201958608
1634830872435893024,-0.26139414004,-0.695368640663,0.0,0.0,0.0,0.950015756207,0.312201958608
1634830872480296338,-0.26139414004,-0.695368640663,0.0,0.0,0.0,0.950015756207,0.312201958608
1634830872480304152,-0.26139414004,-0.695368640663,0.0,0.0,0.0,0.950015756207,0.312201958608
1634830872523882894,-0.26139414004,-0.695368640663,0.0,0.0,0.0,0.950015756207,0.312201958608
1634830872523896651,-0.26139414004,-0.695368640663,0.0,0.0,0.0,0.950015756207,0.312201958608
1634830872567743250,-0.26139414004,-0.695368640663,0.0,0.0,0.0,0.950015756207,0.312201958608
1634830872567756815,-0.26139414004,-0.695368640663,0.0,0.0,0.0,0.950015756207,0.312201958608
1634830872609610243,-0.26139414004,-0.695368640663,0.0,0.0,0.0,0.950015756207,0.312201958608
1634830872609619250,-0.26139414004,-0.695368640663,0.0,0.0,0.0,0.950015756207,0.312201958608
1634830872610575069,-0.26139414004,-0.695368640663,0.0,0.0,0.0,0.950015756207,0.312201958608
1634830872629287196,-0.26139414004,-0.695368640663,0.0,0.0,0.0,0.950015756207,0.312201958608
1634830872649581176,-0.26139414004,-0.695368640663,0.0,0.0,0.0,0.950015756207,0.312201958608
1634830872691779516,-0.26139414004,-0.695368640663,0.0,0.0,0.0,0.950015756207,0.312201958608
1634830872691791098,-0.26139414004,-0.695368640663,0.0,0.0,0.0,0.950015756207,0.312201958608
1634830872735847564,-0.26139414004,-0.695368640663,0.0,0.0,0.0,0.950015756207,0.312201958608
1634830872735859617,-0.26139414004,-0.695368640663,0.0,0.0,0.0,0.950015756207,0.312201958608
1634830872779901787,-0.26139414004,-0.695368640663,0.0,0.0,0.0,0.950015756207,0.312201958608
1634830872779914420,-0.26139414004,-0.695368640663,0.0,0.0,0.0,0.950015756207,0.312201958608
1634830872823767632,-0.26139414004,-0.695368640663,0.0,0.0,0.0,0.950015756207,0.312201958608
1634830872823780677,-0.26139414004,-0.695368640663,0.0,0.0,0.0,0.950015756207,0.312201958608
1634830872869641508,-0.26139414004,-0.695368640663,0.0,0.0,0.0,0.950015756207,0.312201958608
1634830872869652288,-0.26139414004,-0.695368640663,0.0,0.0,0.0,0.950015756207,0.312201958608
1634830872870979621,-0.26139414004,-0.695368640663,0.0,0.0,0.0,0.950015756207,0.312201958608
1634830872888145982,-0.26139414004,-0.695368640663,0.0,0.0,0.0,0.950015756207,0.312201958608
1634830872908411479,-0.26139414004,-0.695368640663,0.0,0.0,0.0,0.950015756207,0.312201958608
1634830872955785555,-0.26139414004,-0.695368640663,0.0,0.0,0.0,0.950015756207,0.312201958608
1634830872955798730,-0.26139414004,-0.695368640663,0.0,0.0,0.0,0.950015756207,0.312201958608
1634830873000158590,-0.26139414004,-0.695368640663,0.0,0.0,0.0,0.950015756207,0.312201958608
1634830873000167647,-0.26139414004,-0.695368640663,0.0,0.0,0.0,0.950015756207,0.312201958608
1634830873043837081,-0.26139414004,-0.695368640663,0.0,0.0,0.0,0.950015756207,0.312201958608
1634830873043848463,-0.26139414004,-0.695368640663,0.0,0.0,0.0,0.950015756207,0.312201958608
1634830873088109667,-0.26139414004,-0.695368640663,0.0,0.0,0.0,0.950015756207,0.312201958608
1634830873088121249,-0.26139414004,-0.695368640663,0.0,0.0,0.0,0.950015756207,0.312201958608
1634830873097804656,-0.26139414004,-0.695368640663,0.0,0.0,0.0,0.950015756207,0.312201958608
1634830873109321916,-0.26139414004,-0.695368640663,0.0,0.0,0.0,0.950015756207,0.312201958608
1634830873128445912,-0.26139414004,-0.695368640663,0.0,0.0,0.0,0.950015756207,0.312201958608
1634830873176790976,-0.26139414004,-0.695368640663,0.0,0.0,0.0,0.950015756207,0.312201958608
1634830873176802497,-0.26139414004,-0.695368640663,0.0,0.0,0.0,0.950015756207,0.312201958608
1634830873220222449,-0.26139414004,-0.695368640663,0.0,0.0,0.0,0.950015756207,0.312201958608
1634830873220233931,-0.26139414004,-0.695368640663,0.0,0.0,0.0,0.950015756207,0.312201958608
1634830873263721701,-0.26139414004,-0.695368640663,0.0,0.0,0.0,0.950015756207,0.312201958608
1634830873263730297,-0.26139414004,-0.695368640663,0.0,0.0,0.0,0.950015756207,0.312201958608
1634830873307782876,-0.26139414004,-0.695368640663,0.0,0.0,0.0,0.950015756207,0.312201958608
1634830873307795380,-0.26139414004,-0.695368640663,0.0,0.0,0.0,0.950015756207,0.312201958608
1634830873349600736,-0.26139414004,-0.695368640663,0.0,0.0,0.0,0.950015756207,0.312201958608
1634830873349618059,-0.26139414004,-0.695368640663,0.0,0.0,0.0,0.950015756207,0.312201958608
1634830873351035060,-0.26139414004,-0.695368640663,0.0,0.0,0.0,0.950015756207,0.312201958608
1634830873369394329,-0.26139414004,-0.695368640663,0.0,0.0,0.0,0.950015756207,0.312201958608
1634830873387815886,-0.26139414004,-0.695368640663,0.0,0.0,0.0,0.950015756207,0.312201958608
1634830873431846093,-0.26139414004,-0.695368640663,0.0,0.0,0.0,0.950015756207,0.312201958608
1634830873431855501,-0.26139414004,-0.695368640663,0.0,0.0,0.0,0.950015756207,0.312201958608
1634830873475881690,-0.26139414004,-0.695368640663,0.0,0.0,0.0,0.950015756207,0.312201958608
1634830873475893051,-0.26139414004,-0.695368640663,0.0,0.0,0.0,0.950015756207,0.312201958608
1634830873523644141,-0.26139414004,-0.695368640663,0.0,0.0,0.0,0.950015756207,0.312201958608
1634830873523656555,-0.26139414004,-0.695368640663,0.0,0.0,0.0,0.950015756207,0.312201958608
1634830873567778395,-0.26139414004,-0.695368640663,0.0,0.0,0.0,0.950015756207,0.312201958608
1634830873567964878,-0.261400596292,-0.69536388369,0.0,0.0,0.0,0.950021965785,0.312183062522
1634830873608084993,-0.261452323767,-0.695325770808,0.0,0.0,0.0,0.95003430931,0.312145496738
1634830873608095012,-0.261639890164,-0.695187624477,0.0,0.0,0.0,0.950065049902,0.312051920288
1634830873608893925,-0.2618986779,-0.694997101945,0.0,0.0,0.0,0.95008942724,0.311977691904
1634830873628596146,-0.262299949491,-0.694701666536,0.0,0.0,0.0,0.950051344411,0.312093644572
1634830873648404346,-0.262759294208,-0.69436342746,0.0,0.0,0.0,0.950081558611,0.312001653821
1634830873691766359,-0.263490491713,-0.693824980377,0.0,0.0,0.0,0.950061499561,0.312062729354
1634830873691778422,-0.264558118675,-0.693039099415,0.0,0.0,0.0,0.950127843285,0.311860676287
1634830873735914799,-0.26613776551,-0.691878588457,0.0,0.0,0.0,0.950335927335,0.311226003438
1634830873735940979,-0.268581016337,-0.690088473097,0.0,0.0,0.0,0.950535753771,0.31061516512
1634830873784193557,-0.271622791825,-0.68786344919,0.0,0.0,0.0,0.950511384009,0.310689730873
1634830873784206822,-0.274571122218,-0.685699603835,0.0,0.0,0.0,0.950114890648,0.311900135571
1634830873831110909,-0.277840289871,-0.683296464953,0.0,0.0,0.0,0.950313565324,0.311294278074
1634830873831118744,-0.281813180951,-0.680385810016,0.0,0.0,0.0,0.950597171242,0.310427154138
1634830873831124515,-0.285633273418,-0.677591229866,0.0,0.0,0.0,0.950497046122,0.310733592188
1634830873848054798,-0.289686618411,-0.674627234696,0.0,0.0,0.0,0.950779992517,0.309866754961
1634830873867990130,-0.29407861609,-0.671432131301,0.0,0.0,0.0,0.951067679683,0.308982634887
1634830873911729948,-0.29867668747,-0.668097006256,0.0,0.0,0.0,0.951384862157,0.308004616944
1634830873911745608,-0.303304820964,-0.664763061651,0.0,0.0,0.0,0.951866078444,0.306514222684
1634830873955943261,-0.308175636701,-0.661270341871,0.0,0.0,0.0,0.952174159001,0.305555839301
1634830873955955825,-0.31296514364,-0.657858324696,0.0,0.0,0.0,0.952699741072,0.303913151018
1634830874003707495,-0.317636343913,-0.654541138747,0.0,0.0,0.0,0.952733514087,0.303807259846
1634830874003716993,-0.322764832111,-0.650911441216,0.0,0.0,0.0,0.953014289259,0.302925344712
1634830874047761568,-0.327282992708,-0.647710284419,0.0,0.0,0.0,0.952709678378,0.303881998028
1634830874047771356,-0.332388083407,-0.644088511785,0.0,0.0,0.0,0.952827373586,0.30351276109
1634830874047833744,-0.336889921032,-0.640892175796,0.0,0.0,0.0,0.952534332655,0.304431182887
1634830874067762844,-0.341584263596,-0.637552512058,0.0,0.0,0.0,0.952665109703,0.304021691258
1634830874088474796,-0.345795574409,-0.634558209063,0.0,0.0,0.0,0.952481444251,0.304596615802
1634830874131790781,-0.350134761861,-0.631467085086,0.0,0.0,0.0,0.952443050069,0.304716649325
1634830874131805899,-0.354356050561,-0.62846030201,0.0,0.0,0.0,0.952526291012,0.304456343226
1634830874185781710,-0.358060092793,-0.625820400045,0.0,0.0,0.0,0.952361533526,0.304971325636
1634830874185794264,-0.362003044145,-0.623003420722,0.0,0.0,0.0,0.952189959418,0.30550659761
1634830874227787987,-0.36560362494,-0.620426567956,0.0,0.0,0.0,0.952140629376,0.305660304735
1634830874227797815,-0.369057551789,-0.617946965064,0.0,0.0,0.0,0.951737404443,0.306913526882
1634830874268574363,-0.372662328833,-0.615347858212,0.0,0.0,0.0,0.951565350247,0.307446555044
1634830874268586476,-0.376142807795,-0.612838862338,0.0,0.0,0.0,0.951718014405,0.3069736488
1634830874269607870,-0.379519443124,-0.610403810247,0.0,0.0,0.0,0.951454383434,0.3077897923
1634830874287807657,-0.382905876426,-0.607956024227,0.0,0.0,0.0,0.951448016343,0.307809473858
1634830874308492467,-0.386210026497,-0.605574125349,0.0,0.0,0.0,0.951754202816,0.306861430327
1634830874351767554,-0.389373006646,-0.603296893057,0.0,0.0,0.0,0.951656497954,0.307164304408
1634830874351777493,-0.392390098146,-0.601119207868,0.0,0.0,0.0,0.951473139497,0.307731806637
1634830874395904503,-0.395757412832,-0.598686314513,0.0,0.0,0.0,0.951509735471,0.307618632893
1634830874395917868,-0.399144760333,-0.596239191447,0.0,0.0,0.0,0.951368393357,0.308055482214
1634830874439755571,-0.402482581974,-0.59381883898,0.0,0.0,0.0,0.951060796226,0.309003821791
1634830874439766943,-0.406091036826,-0.591198384913,0.0,0.0,0.0,0.95110938825,0.308854223839
1634830874483797039,-0.409653733663,-0.588609800302,0.0,0.0,0.0,0.950967134356,0.309291948449
1634830874483814742,-0.413420750398,-0.585864543593,0.0,0.0,0.0,0.95072546942,0.310034001034
1634830874527727878,-0.417373921283,-0.582980450741,0.0,0.0,0.0,0.95079825894,0.309810701553
1634830874527750370,-0.421314944176,-0.580106049543,0.0,0.0,0.0,0.950661019785,0.310231567479
1634830874567753235,-0.425322940612,-0.577173076895,0.0,0.0,0.0,0.950430546268,0.310936933671
1634830874567769075,-0.42947930168,-0.574131438675,0.0,0.0,0.0,0.950552680639,0.310563361215
1634830874568531277,-0.433531953626,-0.571164702355,0.0,0.0,0.0,0.950427280744,0.31094691511
1634830874587409929,-0.437517592854,-0.568243114124,0.0,0.0,0.0,0.950450656613,0.310875456322
1634830874607529169,-0.441652885117,-0.565212827933,0.0,0.0,0.0,0.950417978376,0.310975346901
1634830874652271053,-0.445663968127,-0.56227071568,0.0,0.0,0.0,0.950242831457,0.311510130277
1634830874652284388,-0.449719251155,-0.55929541419,0.0,0.0,0.0,0.950445957135,0.310889823839
1634830874695743925,-0.453686993244,-0.556389563241,0.0,0.0,0.0,0.950326789963,0.311253903235
1634830874695755667,-0.457630874155,-0.553492075486,0.0,0.0,0.0,0.950238568516,0.311523133819
1634830874744443119,-0.461472209203,-0.550673135853,0.0,0.0,0.0,0.950373929022,0.311109940432
1634830874744456895,-0.465398358509,-0.547792094503,0.0,0.0,0.0,0.950254751875,0.311473765409
1634830874787393572,-0.469115826556,-0.545062176408,0.0,0.0,0.0,0.950334515925,0.31123031318
1634830874787406276,-0.472938869028,-0.54225897483,0.0,0.0,0.0,0.950451200749,0.31087379271
1634830874790231984,-0.476568161802,-0.539598181761,0.0,0.0,0.0,0.950332683538,0.311235908275
1634830874807200581,-0.480132081877,-0.536985210084,0.0,0.0,0.0,0.950462255975,0.310839990938
1634830874827980020,-0.483828023593,-0.534280292171,0.0,0.0,0.0,0.950541907076,0.310596334318
1634830874871770303,-0.487355377699,-0.53169817526,0.0,0.0,0.0,0.95048564853,0.310768453899
1634830874871780662,-0.490973738104,-0.529050359521,0.0,0.0,0.0,0.950528290226,0.310638003921
1634830874915744133,-0.49483325867,-0.526229050993,0.0,0.0,0.0,0.950663241168,0.310224760282
1634830874915760584,-0.498232151891,-0.523742874439,0.0,0.0,0.0,0.950458719423,0.310850804523
1634830874959825917,-0.501980570256,-0.521001193254,0.0,0.0,0.0,0.950624903144,0.310342220014
1634830874959848420,-0.505679342913,-0.518300147729,0.0,0.0,0.0,0.950704426638,0.310098521717
1634830875003751576,-0.509364683076,-0.515607197624,0.0,0.0,0.0,0.950610852933,0.310385254622
1634830875003766925,-0.513134864155,-0.512854248962,0.0,0.0,0.0,0.950733510405,0.310009342107
1634830875047206845,-0.517010466729,-0.510026950477,0.0,0.0,0.0,0.950695248344,0.310126659246
1634830875047222695,-0.520683037329,-0.507343818856,0.0,0.0,0.0,0.95061406317,0.310375422518
1634830875048007160,-0.524466071566,-0.504581329206,0.0,0.0,0.0,0.950761402238,0.309923790656
1634830875067071764,-0.528172700493,-0.501876682816,0.0,0.0,0.0,0.950674026521,0.310191707334
1634830875087001375,-0.531864026035,-0.499178440029,0.0,0.0,0.0,0.950611346822,0.310383741993
1634830875131881831,-0.53580276851,-0.496302274547,0.0,0.0,0.0,0.950783098781,0.309857223688
1634830875132023308,-0.539451708377,-0.493641504082,0.0,0.0,0.0,0.950751464651,0.309954274794
1634830875175775809,-0.543371910006,-0.490779927502,0.0,0.0,0.0,0.950719302587,0.310052911112
1634830875175792491,-0.547266705964,-0.487938607112,0.0,0.0,0.0,0.950810730469,0.309772424249
1634830875219774927,-0.550784558358,-0.485370072343,0.0,0.0,0.0,0.950606284343,0.310399246405
1634830875219789214,-0.554631333928,-0.482557908921,0.0,0.0,0.0,0.950592774928,0.31044061631
1634830875263965708,-0.558413977685,-0.479794666932,0.0,0.0,0.0,0.950690708235,0.310140576634
1634830875263976188,-0.562099255521,-0.477101522831,0.0,0.0,0.0,0.950572371559,0.310503086021
1634830875307218934,-0.565756966271,-0.474425622091,0.0,0.0,0.0,0.95056540482,0.310524413146
1634830875307229504,-0.569448053055,-0.471727541846,0.0,0.0,0.0,0.95061406317,0.310375422518
1634830875307957862,-0.573125458104,-0.469037326103,0.0,0.0,0.0,0.950514226625,0.310681034155
1634830875327020433,-0.577177349229,-0.466069822045,0.0,0.0,0.0,0.950450755547,0.310875153847
1634830875346989309,-0.58110014235,-0.463198635954,0.0,0.0,0.0,0.950523792063,0.310651767615
1634830875391737284,-0.58481386489,-0.46047559755,0.0,0.0,0.0,0.950237701035,0.311525779882
1634830875391747052,-0.588460653152,-0.457799064529,0.0,0.0,0.0,0.950385834125,0.311073570548
1634830875435762401,-0.592030758309,-0.455179772876,0.0,0.0,0.0,0.950248729884,0.311492136907
1634830875435774493,-0.595636431623,-0.452527625027,0.0,0.0,0.0,0.950148658362,0.311797253056
1634830875479794150,-0.59945671075,-0.449720712871,0.0,0.0,0.0,0.950277969152,0.311402924431
1634830875479803959,-0.60322632714,-0.44695249614,0.0,0.0,0.0,0.950196251662,0.311652183255
1634830875523761399,-0.60694133946,-0.444218425345,0.0,0.0,0.0,0.950089700274,0.311976860415
1634830875523771297,-0.610597684642,-0.441527270924,0.0,0.0,0.0,0.950126205686,0.311865665422
1634830875571174697,-0.614079134564,-0.438963555725,0.0,0.0,0.0,0.949945338151,0.312416155993
1634830875571184015,-0.617654503674,-0.436324788861,0.0,0.0,0.0,0.949919782897,0.312493849637
1634830875571763622,-0.621496029663,-0.433492249912,0.0,0.0,0.0,0.949987112769,0.312289105755
1634830875587966800,-0.625007310187,-0.430901479101,0.0,0.0,0.0,0.949849572701,0.312707194095
1634830875609668847,-0.628640212552,-0.42821879916,0.0,0.0,0.0,0.949805178532,0.312842009381
1634830875655760394,-0.632240571318,-0.42556035897,0.0,0.0,0.0,0.949916650201,0.312503372255
1634830875655776875,-0.635725039909,-0.422987279132,0.0,0.0,0.0,0.949754116523,0.31299699383
1634830875699811320,-0.6392974212,-0.42034463055,0.0,0.0,0.0,0.949765944446,0.31296110105
1634830875699833081,-0.64312302314,-0.417517471801,0.0,0.0,0.0,0.949808463958,0.312832034475
1634830875744271812,-0.647006971616,-0.414647069745,0.0,0.0,0.0,0.949732374509,0.313062959817
1634830875744284276,-0.650592903818,-0.411995878277,0.0,0.0,0.0,0.949781605018,0.312913570764
1634830875788163847,-0.654399978815,-0.409184238012,0.0,0.0,0.0,0.949830389004,0.312765458649
1634830875788179947,-0.657837618208,-0.406642513561,0.0,0.0,0.0,0.949686534411,0.31320198971
1634830875789478405,-0.661679674845,-0.403796713739,0.0,0.0,0.0,0.949647903317,0.313319102075
1634830875806781655,-0.665522314044,-0.400951754425,0.0,0.0,0.0,0.949621750596,0.313398357997
1634830875826782150,-0.669271843475,-0.398169236752,0.0,0.0,0.0,0.949395649578,0.314082633335
1634830875868184584,-0.673238852378,-0.395222455183,0.0,0.0,0.0,0.949431776944,0.313973407997
1634830875868194873,-0.677007105625,-0.392425819354,0.0,0.0,0.0,0.94946202332,0.313881930467
1634830875919412633,-0.680509986436,-0.389824133016,0.0,0.0,0.0,0.949423957909,0.313997051178
1634830875919426139,-0.684394030194,-0.38694119409,0.0,0.0,0.0,0.949541530962,0.313641325369
1634830875967257080,-0.688026949982,-0.384244790395,0.0,0.0,0.0,0.949440694422,0.313946440935
1634830875967270325,-0.691735918699,-0.381489112412,0.0,0.0,0.0,0.949352135157,0.314214136335
1634830876006872921,-0.695690104983,-0.378552342749,0.0,0.0,0.0,0.94946339681,0.313877775762
1634830876006888019,-0.699347926305,-0.375835505623,0.0,0.0,0.0,0.949349910209,0.314220858612
1634830876008802423,-0.703036462454,-0.373093151447,0.0,0.0,0.0,0.949355285003,0.314204619376
1634830876027474584,-0.707042155874,-0.370117863813,0.0,0.0,0.0,0.949453931842,0.313906405335
1634830876046636052,-0.710525487811,-0.367530044903,0.0,0.0,0.0,0.949359559641,0.314191703452
1634830876100787054,-0.714510772402,-0.364567306035,0.0,0.0,0.0,0.949364359025,0.314177201293
1634830876100796342,-0.718322885343,-0.361735466409,0.0,0.0,0.0,0.949413315081,0.314029229764
1634830876144326262,-0.721927877524,-0.359055475551,0.0,0.0,0.0,0.949337459618,0.314258472863
1634830876144339707,-0.725635909082,-0.356298805417,0.0,0.0,0.0,0.949311478588,0.314336947592
1634830876186511537,-0.729473246841,-0.35344691465,0.0,0.0,0.0,0.949335359371,0.314264817387
1634830876186524882,-0.733037793746,-0.350793171041,0.0,0.0,0.0,0.949221908128,0.314607325297
1634830876187818360,-0.73681425981,-0.34798080702,0.0,0.0,0.0,0.949289793591,0.314402429673
1634830876206657918,-0.740514250117,-0.345226387404,0.0,0.0,0.0,0.949169756692,0.314764631083
1634830876226578953,-0.744043941121,-0.34259308232,0.0,0.0,0.0,0.949049907528,0.315125805069
1634830876267813097,-0.747772228535,-0.339809961467,0.0,0.0,0.0,0.949061490007,0.315090920507
1634830876267829127,-0.751514480931,-0.337018575797,0.0,0.0,0.0,0.949047926846,0.315131770136
1634830876311886856,-0.755158043862,-0.334296022935,0.0,0.0,0.0,0.948927712072,0.315493577212
1634830876311901414,-0.75901327703,-0.331414303404,0.0,0.0,0.0,0.948939057087,0.315459452126
1634830876363767251,-0.762642822734,-0.328699840913,0.0,0.0,0.0,0.948818742517,0.315821142182
1634830876363913548,-0.766063665548,-0.326135661935,0.0,0.0,0.0,0.948698692579,0.316181578683
1634830876408763898,-0.769902785742,-0.323259555123,0.0,0.0,0.0,0.948785670171,0.315920483789
1634830876408775600,-0.773574441203,-0.320507404498,0.0,0.0,0.0,0.948646179585,0.316339099638
1634830876409820698,-0.7773919153,-0.317642158574,0.0,0.0,0.0,0.948626093434,0.316399328153
1634830876429130866,-0.781332398045,-0.314687080775,0.0,0.0,0.0,0.94875072684,0.316025407713
1634830876448091573,-0.784925962791,-0.311991572609,0.0,0.0,0.0,0.948623953707,0.316405743396
1634830876493168982,-0.788781109617,-0.309095989529,0.0,0.0,0.0,0.948553318358,0.316617438293
1634830876493180934,-0.79259753264,-0.306229343784,0.0,0.0,0.0,0.948533214536,0.316677660913
1634830876535796624,-0.796194057948,-0.303524477245,0.0,0.0,0.0,0.948425122515,0.317001241293
1634830876535807144,-0.800149121213,-0.300548325344,0.0,0.0,0.0,0.948467888526,0.316873262417
1634830876579760645,-0.804040534638,-0.297620749529,0.0,0.0,0.0,0.948397073164,0.317085148839
1634830876579776245,-0.807737784233,-0.294836177857,0.0,0.0,0.0,0.948351880949,0.31722028608
1634830876623833834,-0.811569500001,-0.291950000419,0.0,0.0,0.0,0.94838859636,0.31711050171
1634830876623844625,-0.815266685635,-0.289165183931,0.0,0.0,0.0,0.948305457515,0.317359038388
1634830876666953727,-0.818891255934,-0.286430957868,0.0,0.0,0.0,0.948241380557,0.317550443551
1634830876666963205,-0.822713977258,-0.283545798894,0.0,0.0,0.0,0.948183205557,0.317724107834
1634830876667806551,-0.826337557828,-0.280810367746,0.0,0.0,0.0,0.948144396126,0.317839903246
1634830876686585124,-0.829915088927,-0.278107002644,0.0,0.0,0.0,0.948035932933,0.318163275485
1634830876706611438,-0.833818428607,-0.275155658351,0.0,0.0,0.0,0.94807260568,0.31805398026
1634830876748114552,-0.837357103483,-0.272481588267,0.0,0.0,0.0,0.948141665027,0.317848050237
1634830876748124160,-0.841056323272,-0.269686258988,0.0,0.0,0.0,0.948090013863,0.318002084291
1634830876791851764,-0.844768492565,-0.266881782073,0.0,0.0,0.0,0.948127047403,0.317891651325
1634830876792092339,-0.848102010649,-0.264362089184,0.0,0.0,0.0,0.948044412569,0.318138007468
1634830876837739216,-0.851748605323,-0.261604065836,0.0,0.0,0.0,0.948068911136,0.318064992945
1634830876837749145,-0.855447729163,-0.258809035272,0.0,0.0,0.0,0.948118650215,0.317916695245
1634830876881705562,-0.858890025724,-0.25620663138,0.0,0.0,0.0,0.948016769007,0.318220372827
1634830876881715170,-0.862747895805,-0.25328854755,0.0,0.0,0.0,0.948085231956,0.318016340691
1634830876923787190,-0.866498150555,-0.250454553581,0.0,0.0,0.0,0.948134862265,0.317868342177
1634830876923801247,-0.870094593409,-0.247736309845,0.0,0.0,0.0,0.948045374396,0.318135141231
1634830876966207259,-0.873938589092,-0.244825620866,0.0,0.0,0.0,0.947898190201,0.318573415423
1634830876966221145,-0.877743610231,-0.241944230068,0.0,0.0,0.0,0.947966830451,0.318369107114
1634830876967241517,-0.881227869614,-0.239303932134,0.0,0.0,0.0,0.947832955126,0.318767453133
1634830876987120392,-0.885024607927,-0.236424889073,0.0,0.0,0.0,0.94789530072,0.31858201279
1634830877006410373,-0.888463205552,-0.233817811961,0.0,0.0,0.0,0.947844037494,0.318734498583
1634830877048177205,-0.892086690343,-0.231068858567,0.0,0.0,0.0,0.947786026231,0.318906958973
1634830877048189929,-0.896011306378,-0.228092634369,0.0,0.0,0.0,0.947886251577,0.318608935956
1634830877091931540,-0.89968156254,-0.225312242333,0.0,0.0,0.0,0.947821820884,0.318800558117
1634830877091946197,-0.903432978817,-0.222466390963,0.0,0.0,0.0,0.947852506998,0.318709311093
1634830877135909558,-0.907281795381,-0.219549422282,0.0,0.0,0.0,0.947863942302,0.318675300083
1634830877135926299,-0.910745645366,-0.216922663207,0.0,0.0,0.0,0.947863435219,0.318676808341
1634830877179966686,-0.914426673731,-0.214129666114,0.0,0.0,0.0,0.947748112991,0.319019614322
1634830877179981644,-0.918260266397,-0.211219432112,0.0,0.0,0.0,0.947810431819,0.318834416798
1634830877223842901,-0.92188358972,-0.20847021287,0.0,0.0,0.0,0.947739686008,0.319044648232
1634830877223856006,-0.925640045868,-0.205617524816,0.0,0.0,0.0,0.94772587651,0.319085667169
1634830877266059936,-0.929550628374,-0.202649233385,0.0,0.0,0.0,0.947788056013,0.318900926431
1634830877266072199,-0.933025441866,-0.200009859219,0.0,0.0,0.0,0.947673059118,0.31924249877
1634830877266834091,-0.936562199602,-0.197319191139,0.0,0.0,0.0,0.947557811993,0.319584406584
1634830877286421364,-0.940169238183,-0.194575791987,0.0,0.0,0.0,0.94765250919,0.319303494854
1634830877307075948,-0.943590755335,-0.191972373111,0.0,0.0,0.0,0.947499239046,0.319758021021
1634830877350485700,-0.947413826249,-0.189061814973,0.0,0.0,0.0,0.947619021418,0.319402865121
1634830877350495318,-0.951187415317,-0.186191909601,0.0,0.0,0.0,0.947624256157,0.319387334036
1634830877391802331,-0.954710970229,-0.183510430026,0.0,0.0,0.0,0.947508982214,0.319729148848
1634830877391817339,-0.958591220941,-0.180555244959,0.0,0.0,0.0,0.947545860914,0.319619838974
1634830877435776792,-0.962159435449,-0.177840283116,0.0,0.0,0.0,0.947602451535,0.319452021193
1634830877435793082,-0.965784987425,-0.175080583574,0.0,0.0,0.0,0.947499696969,0.319756664111
1634830877479927998,-0.969659450966,-0.172131831027,0.0,0.0,0.0,0.947721179861,0.319099616488
1634830877479938177,-0.973204328151,-0.169438698111,0.0,0.0,0.0,0.947637799229,0.319347148841
1634830877523706799,-0.976932464533,-0.166601497385,0.0,0.0,0.0,0.947534874923,0.319652406223
1634830877523716387,-0.980877648993,-0.163599214035,0.0,0.0,0.0,0.947635283853,0.319354612926
1634830877566181662,-0.984312054458,-0.160986405061,0.0,0.0,0.0,0.947532942087,0.319658135607
1634830877566192272,-0.987884863017,-0.158263392229,0.0,0.0,0.0,0.947391955197,0.32007574608
1634830877567090181,-0.99157835518,-0.155447941174,0.0,0.0,0.0,0.947512111035,0.31971987652
1634830877586647156,-0.995004780942,-0.152837731002,0.0,0.0,0.0,0.947365009331,0.320155492058
1634830877605875270,-0.998843417387,-0.149907061392,0.0,0.0,0.0,0.947299909171,0.320348063964
1634830877648464600,-1.00265030534,-0.147001624283,0.0,0.0,0.0,0.947381666641,0.320106197553
1634830877648474548,-1.00613810374,-0.144339484296,0.0,0.0,0.0,0.947259810425,0.320466615349
1634830877691761408,-1.00989788303,-0.14146453625,0.0,0.0,0.0,0.947220359999,0.320583202311
1634830877691774072,-1.01369747121,-0.138563123406,0.0,0.0,0.0,0.947385155692,0.320095871225
1634830877735909949,-1.01713400898,-0.135939881653,0.0,0.0,0.0,0.947288949131,0.320380472025
1634830877735923194,-1.02097119191,-0.133007309197,0.0,0.0,0.0,0.947223803238,0.320573028464
1634830877784796617,-1.0246811516,-0.130173726507,0.0,0.0,0.0,0.9473504894,0.320198454452
1634830877784805484,-1.02818670332,-0.127494983177,0.0,0.0,0.0,0.947196611423,0.320653363165
1634830877826722601,-1.03204186215,-0.124546575737,0.0,0.0,0.0,0.94721446798,0.320600610807
1634830877826732610,-1.03568096495,-0.121765553456,0.0,0.0,0.0,0.94727107934,0.320433303896
1634830877828125356,-1.03930669546,-0.118992866915,0.0,0.0,0.0,0.947174388662,0.320719000781
1634830877845666096,-1.04312297093,-0.11607250691,0.0,0.0,0.0,0.947077228727,0.321005798744
1634830877865632056,-1.04663218477,-0.113386090208,0.0,0.0,0.0,0.947108586719,0.320913267041
1634830877908696835,-1.05035059317,-0.110535888553,0.0,0.0,0.0,0.946941120298,0.321407085622
1634830877908708968,-1.05421431722,-0.107572655836,0.0,0.0,0.0,0.947061418624,0.321052440192
1634830877951756805,-1.05770330991,-0.10489908747,0.0,0.0,0.0,0.946996826218,0.321242916081
1634830877951771533,-1.06140842234,-0.102058905806,0.0,0.0,0.0,0.94705980939,0.321057187178
1634830877996454696,-1.06521692998,-0.0991421720981,0.0,0.0,0.0,0.947096968973,0.320947552353
1634830877996466629,-1.06870734735,-0.0964706750772,0.0,0.0,0.0,0.947083587878,0.320987036456
1634830878039821116,-1.07235000915,-0.093680895371,0.0,0.0,0.0,0.947095487941,0.320951922759
1634830878039835744,-1.07620395028,-0.0907312660208,0.0,0.0,0.0,0.947202861552,0.320634899953
1634830878084787165,-1.07967600338,-0.0880750952754,0.0,0.0,0.0,0.947106416465,0.320919672021
1634830878084798867,-1.08347879784,-0.0851640912659,0.0,0.0,0.0,0.94713717896,0.320828870634
1634830878125633465,-1.08731590753,-0.0822322157421,0.0,0.0,0.0,0.947263711336,0.320455084506
1634830878125644446,-1.09061042322,-0.0797146948752,0.0,0.0,0.0,0.947269906612,0.320436770718
1634830878126609803,-1.09406536524,-0.0770769177248,0.0,0.0,0.0,0.947435314263,0.319947378935
1634830878145893672,-1.09717305094,-0.0747130593219,0.0,0.0,0.0,0.947709348473,0.319134753384
1634830878165521011,-1.09979120906,-0.0727273567416,0.0,0.0,0.0,0.947913852872,0.318526808186
1634830878208367717,-1.1025271337,-0.0706576342775,0.0,0.0,0.0,0.948130411152,0.317881618608
1634830878208384058,-1.10524777646,-0.0686089868537,0.0,0.0,0.0,0.948655919235,0.316309890613
1634830878251744297,-1.10723439409,-0.0671206713876,0.0,0.0,0.0,0.948922767068,0.315508450187
1634830878251760097,-1.10857325441,-0.0661225391593,0.0,0.0,0.0,0.949472061869,0.313851563211
1634830878296478616,-1.10979349175,-0.0652230517008,0.0,0.0,0.0,0.950546206755,0.310583175372
1634830878296487603,-1.11099408479,-0.0643514762793,0.0,0.0,0.0,0.951682619016,0.307083364355
1634830878339736582,-1.11196560474,-0.0636563739168,0.0,0.0,0.0,0.952709726732,0.303881846431
1634830878339752852,-1.11240988035,-0.0633428140714,0.0,0.0,0.0,0.953697066338,0.300768857526
1634830878385383678,-1.1126514828,-0.0631744023326,0.0,0.0,0.0,0.954739832512,0.297442182979
1634830878385393747,-1.11264888945,-0.0631760655135,0.0,0.0,0.0,0.955871020276,0.293786644687
1634830878388169661,-1.11269191568,-0.063147384196,0.0,0.0,0.0,0.957512739892,0.288390972371
1634830878405609239,-1.11253979202,-0.0632466096677,0.0,0.0,0.0,0.959231418081,0.282621808368
1634830878425559310,-1.11204829028,-0.0635597687398,0.0,0.0,0.0,0.960705949194,0.277568152321
1634830878467769531,-1.11149284398,-0.063906535529,0.0,0.0,0.0,0.962050694163,0.272870778685
1634830878467781694,-1.11100190373,-0.0642056136204,0.0,0.0,0.0,0.96351119437,0.267668037546
1634830878512426064,-1.11045872585,-0.0645283082132,0.0,0.0,0.0,0.96516820047,0.261630167989
1634830878512435462,-1.10993861674,-0.0648277974548,0.0,0.0,0.0,0.966950133312,0.254965565691
1634830878559396385,-1.10962461447,-0.0650031647829,0.0,0.0,0.0,0.968853774415,0.247633527216
1634830878559410021,-1.10956987638,-0.0650324980298,0.0,0.0,0.0,0.970629588769,0.240578888114
1634830878605065273,-1.10954274654,-0.0650464473009,0.0,0.0,0.0,0.972512007784,0.23285273182
1634830878605082886,-1.10934325058,-0.0651457472763,0.0,0.0,0.0,0.974189378093,0.225732265328
1634830878646162689,-1.10934487749,-0.0651452819302,0.0,0.0,0.0,0.975944898551,0.218017327275
1634830878646179992,-1.1095070454,-0.0650707396408,0.0,0.0,0.0,0.977630755829,0.210328565007
1634830878647628063,-1.10976578755,-0.0649563700226,0.0,0.0,0.0,0.979268048454,0.202568727293
1634830878667860086,-1.1097752101,-0.064952379428,0.0,0.0,0.0,0.980711790637,0.19545941703
1634830878685427957,-1.10949466851,-0.0650666176661,0.0,0.0,0.0,0.982047865783,0.188631888373
1634830878727844880,-1.10950448532,-0.0650632724853,0.0,0.0,0.0,0.983361480425,0.181659568467
1634830878727853396,-1.10992784236,-0.0649059224602,0.0,0.0,0.0,0.984767619376,0.173875633224
1634830878771750581,-1.11001336681,-0.0648749104422,0.0,0.0,0.0,0.985923138058,0.167199180149
1634830878771761682,-1.10972760055,-0.0649726281715,0.0,0.0,0.0,0.986882918378,0.161437620815
1634830878815926765,-1.10960083059,-0.0650146067716,0.0,0.0,0.0,0.987861585747,0.15533669047
1634830878815938276,-1.10969526017,-0.0649850083592,0.0,0.0,0.0,0.988900299113,0.14858061251
1634830878860044647,-1.10999001385,-0.064896732858,0.0,0.0,0.0,0.989926549934,0.141581869377
1634830878860060588,-1.10997740486,-0.0648998901316,0.0,0.0,0.0,0.990779691736,0.135482849257
1634830878903796987,-1.10969432387,-0.0649770761361,0.0,0.0,0.0,0.991463422274,0.130385130642
1634830878903807698,-1.10954978962,-0.0650148385489,0.0,0.0,0.0,0.992215433279,0.124533264484
